{
"type": "FeatureCollection",
"name": "nursing-home-point",
"crs": { "type": "name", "properties": { "name": "urn:ogc:def:crs:OGC:1.3:CRS84" } },
"features": [
{ "type": "Feature", "properties": { "name": "Terrace View Long Term Care Facility", "entity_id": 150291, "beds": 390.0, "address": "462 Grider Street", "city": "Buffalo", "zipcode": 14215 }, "geometry": { "type": "Point", "coordinates": [ -78.8292, 42.9272 ] } },
{ "type": "Feature", "properties": { "name": "Coler Rehabilitation And Nursing Care Center", "entity_id": 150292, "beds": 815.0, "address": "900 Main Street", "city": "Roosevelt Island", "zipcode": 10044 }, "geometry": { "type": "Point", "coordinates": [ -73.9423, 40.7688 ] } },
{ "type": "Feature", "properties": { "name": "Henry J. Carter Skilled Nursing Facility", "entity_id": 150293, "beds": 164.0, "address": "1752 Park Avenue", "city": "New York", "zipcode": 10035 }, "geometry": { "type": "Point", "coordinates": [ -73.9408, 40.803 ] } },
{ "type": "Feature", "properties": { "name": "Living Center At Geneva - North", "entity_id": 150294, "beds": 160.0, "address": "196-198 North Street", "city": "Geneva", "zipcode": 14456 }, "geometry": { "type": "Point", "coordinates": [ -76.9874, 42.8757 ] } },
{ "type": "Feature", "properties": { "name": "Living Center At Geneva - South", "entity_id": 150295, "beds": 103.0, "address": "196-198 North Street", "city": "Geneva", "zipcode": 14456 }, "geometry": { "type": "Point", "coordinates": [ -76.9874, 42.8757 ] } },
{ "type": "Feature", "properties": { "name": "Huntington Living Center", "entity_id": 150296, "beds": 160.0, "address": "369 East Main Street", "city": "Waterloo", "zipcode": 13165 }, "geometry": { "type": "Point", "coordinates": [ -76.8467, 42.9018 ] } },
{ "type": "Feature", "properties": { "name": "St. Peter's Nursing And Rehabilitation Center", "entity_id": 150297, "beds": 160.0, "address": "301 Hackett Blvd", "city": "Albany", "zipcode": 12208 }, "geometry": { "type": "Point", "coordinates": [ -73.805, 42.6533 ] } },
{ "type": "Feature", "properties": { "name": "St. Margaret's Center", "entity_id": 150298, "beds": 92.0, "address": "27 Hackett Boulevard", "city": "Albany", "zipcode": 12208 }, "geometry": { "type": "Point", "coordinates": [ -73.7783, 42.6455 ] } },
{ "type": "Feature", "properties": { "name": "Hudson Park Rehabilitation And Nursing Center", "entity_id": 150299, "beds": 200.0, "address": "325 Northern Boulevard", "city": "Albany", "zipcode": 12204 }, "geometry": { "type": "Point", "coordinates": [ -73.7537, 42.6709 ] } },
{ "type": "Feature", "properties": { "name": "Daughters Of Sarah Nursing Center", "entity_id": 150300, "beds": 210.0, "address": "180 Washington Avenue Extension", "city": "Albany", "zipcode": 12203 }, "geometry": { "type": "Point", "coordinates": [ -73.8516, 42.6999 ] } },
{ "type": "Feature", "properties": { "name": "Teresian House Nursing Home Co Inc", "entity_id": 150301, "beds": 300.0, "address": "200 Washington Ave Ext", "city": "Albany", "zipcode": 12203 }, "geometry": { "type": "Point", "coordinates": [ -73.8542, 42.7021 ] } },
{ "type": "Feature", "properties": { "name": "Delmar Center For Rehabilitation And Nursing", "entity_id": 150302, "beds": 120.0, "address": "125 Rockefeller Road", "city": "Delmar", "zipcode": 12054 }, "geometry": { "type": "Point", "coordinates": [ -73.802, 42.6259 ] } },
{ "type": "Feature", "properties": { "name": "Shaker Place Rehabilitation And Nursing Center", "entity_id": 150304, "beds": 250.0, "address": "100 Heritage Lane", "city": "Albany", "zipcode": 12211 }, "geometry": { "type": "Point", "coordinates": [ -73.8172, 42.7473 ] } },
{ "type": "Feature", "properties": { "name": "The Grand Rehabilitation And Nursing At Guilderland", "entity_id": 150306, "beds": 127.0, "address": "428 State Route 146", "city": "Altamont", "zipcode": 12009 }, "geometry": { "type": "Point", "coordinates": [ -73.9617, 42.7022 ] } },
{ "type": "Feature", "properties": { "name": "Cuba Memorial Hospital Inc Snf", "entity_id": 150307, "beds": 61.0, "address": "140 West Main Street", "city": "Cuba", "zipcode": 14727 }, "geometry": { "type": "Point", "coordinates": [ -78.2875, 42.2135 ] } },
{ "type": "Feature", "properties": { "name": "Highland Park Rehabilitation And Nursing Center", "entity_id": 150308, "beds": 80.0, "address": "160 Seneca St", "city": "Wellsville", "zipcode": 14895 }, "geometry": { "type": "Point", "coordinates": [ -77.9613, 42.1231 ] } },
{ "type": "Feature", "properties": { "name": "Elizabeth Church Manor Nursing Home", "entity_id": 150309, "beds": 120.0, "address": "863 Front Street", "city": "Binghamton", "zipcode": 13905 }, "geometry": { "type": "Point", "coordinates": [ -75.9069, 42.1185 ] } },
{ "type": "Feature", "properties": { "name": "Good Shepherd-Fairview Home Inc", "entity_id": 150310, "beds": 54.0, "address": "80 Fairview Avenue", "city": "Binghamton", "zipcode": 13904 }, "geometry": { "type": "Point", "coordinates": [ -75.8767, 42.1109 ] } },
{ "type": "Feature", "properties": { "name": "Bridgewater Center For Rehabilitation & Nursing, Llc", "entity_id": 150311, "beds": 356.0, "address": "159-163 Front Street", "city": "Binghamton", "zipcode": 13905 }, "geometry": { "type": "Point", "coordinates": [ -75.9169, 42.101 ] } },
{ "type": "Feature", "properties": { "name": "Absolut Center For Nursing And Rehabilitation At Endicott, Llc", "entity_id": 150312, "beds": 160.0, "address": "301 Nantucket Drive", "city": "Endicott", "zipcode": 13760 }, "geometry": { "type": "Point", "coordinates": [ -76.0568, 42.1125 ] } },
{ "type": "Feature", "properties": { "name": "Ideal Senior Living Center", "entity_id": 150313, "beds": 150.0, "address": "601 High Avenue", "city": "Endicott", "zipcode": 13760 }, "geometry": { "type": "Point", "coordinates": [ -76.0677, 42.0918 ] } },
{ "type": "Feature", "properties": { "name": "Susquehanna Nursing & Rehabilitation Center, Llc", "entity_id": 150314, "beds": 160.0, "address": "282 Riverside Dr", "city": "Johnson City", "zipcode": 13790 }, "geometry": { "type": "Point", "coordinates": [ -75.9588, 42.1003 ] } },
{ "type": "Feature", "properties": { "name": "Willow Point Rehabilitation And Nursing Center", "entity_id": 150316, "beds": 300.0, "address": "3700 Old Vestal Road", "city": "Vestal", "zipcode": 13850 }, "geometry": { "type": "Point", "coordinates": [ -75.9858, 42.1009 ] } },
{ "type": "Feature", "properties": { "name": "The Pines Healthcare & Rehabilitation Centers Olean Campus", "entity_id": 150317, "beds": 120.0, "address": "2245 West State Street", "city": "Olean", "zipcode": 14760 }, "geometry": { "type": "Point", "coordinates": [ -78.4574, 42.0771 ] } },
{ "type": "Feature", "properties": { "name": "Absolut Center For Nursing And Rehabilitation At Allegany, Llc", "entity_id": 150318, "beds": 37.0, "address": "2178 North Fifth Street", "city": "Allegany", "zipcode": 14706 }, "geometry": { "type": "Point", "coordinates": [ -78.4899, 42.0946 ] } },
{ "type": "Feature", "properties": { "name": "Salamanca Rehabilitation & Nursing Center", "entity_id": 150319, "beds": 120.0, "address": "451 Broad Street", "city": "Salamanca", "zipcode": 14779 }, "geometry": { "type": "Point", "coordinates": [ -78.7321, 42.1576 ] } },
{ "type": "Feature", "properties": { "name": "The Pines Healthcare & Rehabilitation Centers Machias Campus", "entity_id": 150320, "beds": 115.0, "address": "9822 Route 16", "city": "Machias", "zipcode": 14101 }, "geometry": { "type": "Point", "coordinates": [ -78.4888, 42.4259 ] } },
{ "type": "Feature", "properties": { "name": "Auburn Rehabilitation & Nursing Center", "entity_id": 150321, "beds": 92.0, "address": "85 Thornton Avenue", "city": "Auburn", "zipcode": 13021 }, "geometry": { "type": "Point", "coordinates": [ -76.5792, 42.9136 ] } },
{ "type": "Feature", "properties": { "name": "The Commons On St. Anthony, A Skilled Nursing & Short Term Rehabilitation Community", "entity_id": 150322, "beds": 300.0, "address": "3 St Anthony Street", "city": "Auburn", "zipcode": 13021 }, "geometry": { "type": "Point", "coordinates": [ -76.5815, 42.918 ] } },
{ "type": "Feature", "properties": { "name": "Northwoods Rehabilitation And Nursing Center At Moravia", "entity_id": 150323, "beds": 40.0, "address": "7 Keeler Avenue", "city": "Moravia", "zipcode": 13118 }, "geometry": { "type": "Point", "coordinates": [ -76.4228, 42.7149 ] } },
{ "type": "Feature", "properties": { "name": "Chautauqua Nursing And Rehabilitation Center", "entity_id": 150324, "beds": 216.0, "address": "10836 Temple Road", "city": "Dunkirk", "zipcode": 14048 }, "geometry": { "type": "Point", "coordinates": [ -79.363, 42.4744 ] } },
{ "type": "Feature", "properties": { "name": "Heritage Park Rehab & Skilled Nursing", "entity_id": 150325, "beds": 146.0, "address": "150 Prather Avenue", "city": "Jamestown", "zipcode": 14701 }, "geometry": { "type": "Point", "coordinates": [ -79.2383, 42.0903 ] } },
{ "type": "Feature", "properties": { "name": "Lutheran Retirement Home", "entity_id": 150326, "beds": 148.0, "address": "715 Falconer Street", "city": "Jamestown", "zipcode": 14701 }, "geometry": { "type": "Point", "coordinates": [ -79.2098, 42.1142 ] } },
{ "type": "Feature", "properties": { "name": "Heritage Village Rehab And Skilled Nursing, Inc.", "entity_id": 150327, "beds": 120.0, "address": "4570 Route 60", "city": "Gerry", "zipcode": 14740 }, "geometry": { "type": "Point", "coordinates": [ -79.2519, 42.1962 ] } },
{ "type": "Feature", "properties": { "name": "St. Joseph's Hospital - Skilled Nursing Facility", "entity_id": 150330, "beds": 85.0, "address": "555 St. Joseph's Boulevard", "city": "Elmira", "zipcode": 14902 }, "geometry": { "type": "Point", "coordinates": [ -76.7969, 42.0914 ] } },
{ "type": "Feature", "properties": { "name": "Chemung County Health Center-Nursing Facility", "entity_id": 150331, "beds": 200.0, "address": "103 Washington Street", "city": "Elmira", "zipcode": 14901 }, "geometry": { "type": "Point", "coordinates": [ -76.7966, 42.0934 ] } },
{ "type": "Feature", "properties": { "name": "Elcor Nursing And Rehabilitation Center", "entity_id": 150332, "beds": 305.0, "address": "48 Colonial Drive", "city": "Horseheads", "zipcode": 14845 }, "geometry": { "type": "Point", "coordinates": [ -76.8542, 42.1621 ] } },
{ "type": "Feature", "properties": { "name": "Chasehealth Rehab And Residential Care", "entity_id": 150333, "beds": 80.0, "address": "One Terrace Heights, P.o. Box 250", "city": "New Berlin", "zipcode": 13411 }, "geometry": { "type": "Point", "coordinates": [ -75.3165, 42.6329 ] } },
{ "type": "Feature", "properties": { "name": "Chenango Memorial Hospital Inc Snf", "entity_id": 150334, "beds": 80.0, "address": "179 North Broad Street", "city": "Norwich", "zipcode": 13815 }, "geometry": { "type": "Point", "coordinates": [ -75.5248, 42.5418 ] } },
{ "type": "Feature", "properties": { "name": "Valley View Manor Nursing Home", "entity_id": 150335, "beds": 82.0, "address": "40 Park Street", "city": "Norwich", "zipcode": 13815 }, "geometry": { "type": "Point", "coordinates": [ -75.5128, 42.5349 ] } },
{ "type": "Feature", "properties": { "name": "Nys Veterans Home", "entity_id": 150336, "beds": 242.0, "address": "4211 State Highway 220", "city": "Oxford", "zipcode": 13830 }, "geometry": { "type": "Point", "coordinates": [ -75.6053, 42.4505 ] } },
{ "type": "Feature", "properties": { "name": "Champlain Valley Physicians Hospital Medical Center Snf", "entity_id": 150337, "beds": 54.0, "address": "75 Beekman Street", "city": "Plattsburg", "zipcode": 12901 }, "geometry": { "type": "Point", "coordinates": [ -73.4668, 44.7003 ] } },
{ "type": "Feature", "properties": { "name": "Plattsburgh Rehabilitation And Nursing Center", "entity_id": 150338, "beds": 89.0, "address": "8 Bushey Boulevard", "city": "Plattsburgh", "zipcode": 12901 }, "geometry": { "type": "Point", "coordinates": [ -73.4601, 44.6828 ] } },
{ "type": "Feature", "properties": { "name": "Meadowbrook Healthcare", "entity_id": 150339, "beds": 287.0, "address": "154 Prospect Avenue", "city": "Plattsburgh", "zipcode": 12901 }, "geometry": { "type": "Point", "coordinates": [ -73.474, 44.7035 ] } },
{ "type": "Feature", "properties": { "name": "Clinton County Nursing Home", "entity_id": 150340, "beds": 80.0, "address": "16 Flynn Avenue", "city": "Plattsburgh", "zipcode": 12901 }, "geometry": { "type": "Point", "coordinates": [ -73.4565, 44.6807 ] } },
{ "type": "Feature", "properties": { "name": "Fasny Firemen's Home", "entity_id": 150341, "beds": 92.0, "address": "125 Harry-Howard Avenue", "city": "Hudson", "zipcode": 12534 }, "geometry": { "type": "Point", "coordinates": [ -73.7774, 42.2556 ] } },
{ "type": "Feature", "properties": { "name": "Pine Haven Home", "entity_id": 150342, "beds": 120.0, "address": "Ny Route 217", "city": "Philmont", "zipcode": 12565 }, "geometry": { "type": "Point", "coordinates": [ -73.6499, 42.249 ] } },
{ "type": "Feature", "properties": { "name": "The Grand Rehabilitation And Nursing At Barnwell", "entity_id": 150343, "beds": 236.0, "address": "3230 Church Street", "city": "Valatie", "zipcode": 12184 }, "geometry": { "type": "Point", "coordinates": [ -73.6755, 42.418 ] } },
{ "type": "Feature", "properties": { "name": "Livingston Hills Nursing And Rehabilitation Center", "entity_id": 150344, "beds": 120.0, "address": "2781 Route 9", "city": "Livingston", "zipcode": 12541 }, "geometry": { "type": "Point", "coordinates": [ -73.7849, 42.1395 ] } },
{ "type": "Feature", "properties": { "name": "Cortland Park Rehabilitation And Nursing Center", "entity_id": 150345, "beds": 120.0, "address": "193 Clinton Avenue", "city": "Cortland", "zipcode": 13045 }, "geometry": { "type": "Point", "coordinates": [ -76.1649, 42.6116 ] } },
{ "type": "Feature", "properties": { "name": "Crown Park Rehabilitation And Nursing Center", "entity_id": 150346, "beds": 200.0, "address": "28 Kellogg Road", "city": "Cortland", "zipcode": 13045 }, "geometry": { "type": "Point", "coordinates": [ -76.1601, 42.5952 ] } },
{ "type": "Feature", "properties": { "name": "Robinson Terrace Rehabilitation And Nursing Center", "entity_id": 150347, "beds": 120.0, "address": "28652 State Highway 23", "city": "Stamford", "zipcode": 12167 }, "geometry": { "type": "Point", "coordinates": [ -74.5981, 42.4118 ] } },
{ "type": "Feature", "properties": { "name": "Mountainside Residential Care Center", "entity_id": 150348, "beds": 82.0, "address": "42158 State Highway #28", "city": "Margaretville", "zipcode": 12455 }, "geometry": { "type": "Point", "coordinates": [ -74.6417, 42.1474 ] } },
{ "type": "Feature", "properties": { "name": "The Pines At Poughkeepsie Center For Nursing & Rehabilitation", "entity_id": 150350, "beds": 200.0, "address": "100 Franklin Street", "city": "Poughkeepsie", "zipcode": 12601 }, "geometry": { "type": "Point", "coordinates": [ -73.9296, 41.696 ] } },
{ "type": "Feature", "properties": { "name": "The Grand Rehabilitation And Nursing At Pawling", "entity_id": 150351, "beds": 122.0, "address": "9 Reservoir Road", "city": "Pawling", "zipcode": 12564 }, "geometry": { "type": "Point", "coordinates": [ -73.5919, 41.5744 ] } },
{ "type": "Feature", "properties": { "name": "Sapphire Nursing At Wappingers", "entity_id": 150352, "beds": 62.0, "address": "37 Mesier Avenue", "city": "Wappingers Falls", "zipcode": 12590 }, "geometry": { "type": "Point", "coordinates": [ -73.9177, 41.5947 ] } },
{ "type": "Feature", "properties": { "name": "Northern Dutchess Res Health Care Facility, Inc", "entity_id": 150353, "beds": 100.0, "address": "6525 Springbrook Avenue", "city": "Rhinebeck", "zipcode": 12572 }, "geometry": { "type": "Point", "coordinates": [ -73.9114, 41.935 ] } },
{ "type": "Feature", "properties": { "name": "Ferncliff Nursing Home Co Inc", "entity_id": 150354, "beds": 326.0, "address": "21 Ferncliff Drive", "city": "Rhinebeck", "zipcode": 12572 }, "geometry": { "type": "Point", "coordinates": [ -73.9353, 41.9418 ] } },
{ "type": "Feature", "properties": { "name": "The Baptist Home At Brookmeade", "entity_id": 150355, "beds": 120.0, "address": "46 Brookmeade Drive", "city": "Rhinebeck", "zipcode": 12572 }, "geometry": { "type": "Point", "coordinates": [ -73.8921, 41.9265 ] } },
{ "type": "Feature", "properties": { "name": "Fishkill Center For Rehabilitation And Nursing", "entity_id": 150356, "beds": 160.0, "address": "22 Robert R. Kasin Way", "city": "Beacon", "zipcode": 12508 }, "geometry": { "type": "Point", "coordinates": [ -73.9727, 41.5214 ] } },
{ "type": "Feature", "properties": { "name": "The Eleanor Nursing Care Center", "entity_id": 150357, "beds": 120.0, "address": "419 North Quaker Lane", "city": "Hyde Park", "zipcode": 12538 }, "geometry": { "type": "Point", "coordinates": [ -73.8653, 41.7954 ] } },
{ "type": "Feature", "properties": { "name": "Renaissance Rehabilitation And Nursing Care Center", "entity_id": 150358, "beds": 120.0, "address": "4975 Albany Post Road", "city": "Staatsburg", "zipcode": 12580 }, "geometry": { "type": "Point", "coordinates": [ -73.9336, 41.8326 ] } },
{ "type": "Feature", "properties": { "name": "Mercy Hospital Skilled Nursing Facility", "entity_id": 150359, "beds": 84.0, "address": "55 Melroy Avenue", "city": "Lackawanna", "zipcode": 14218 }, "geometry": { "type": "Point", "coordinates": [ -78.8209, 42.8274 ] } },
{ "type": "Feature", "properties": { "name": "Elderwood At Amherst", "entity_id": 150360, "beds": 92.0, "address": "4459 Bailey Ave", "city": "Amherst", "zipcode": 14226 }, "geometry": { "type": "Point", "coordinates": [ -78.8137, 42.977 ] } },
{ "type": "Feature", "properties": { "name": "Humboldt House Rehabilitation And Nursing Center", "entity_id": 150361, "beds": 173.0, "address": "64 Hager Street", "city": "Buffalo", "zipcode": 14208 }, "geometry": { "type": "Point", "coordinates": [ -78.8482, 42.9211 ] } },
{ "type": "Feature", "properties": { "name": "St Catherine Laboure Health Care Center", "entity_id": 150363, "beds": 80.0, "address": "2157 Main Street", "city": "Buffalo", "zipcode": 14214 }, "geometry": { "type": "Point", "coordinates": [ -78.85, 42.9291 ] } },
{ "type": "Feature", "properties": { "name": "Ellicott Center For Rehabilitation And Nursing", "entity_id": 150364, "beds": 160.0, "address": "200 Seventh Street", "city": "Buffalo", "zipcode": 14201 }, "geometry": { "type": "Point", "coordinates": [ -78.8836, 42.8904 ] } },
{ "type": "Feature", "properties": { "name": "Safire Rehabilitation Of Northtowns, Llc", "entity_id": 150365, "beds": 100.0, "address": "2799 Sheridan Drive", "city": "Tonawanda", "zipcode": 14150 }, "geometry": { "type": "Point", "coordinates": [ -78.8298, 42.9807 ] } },
{ "type": "Feature", "properties": { "name": "Mcauley Residence", "entity_id": 150366, "beds": 160.0, "address": "1503 Military Road", "city": "Kenmore", "zipcode": 14217 }, "geometry": { "type": "Point", "coordinates": [ -78.8858, 42.978 ] } },
{ "type": "Feature", "properties": { "name": "Schofield Residence", "entity_id": 150367, "beds": 120.0, "address": "3333 Elmwood Avenue", "city": "Kenmore", "zipcode": 14217 }, "geometry": { "type": "Point", "coordinates": [ -78.8786, 42.9884 ] } },
{ "type": "Feature", "properties": { "name": "Elderwood At Lancaster", "entity_id": 150368, "beds": 96.0, "address": "1818 Como Park Blvd", "city": "Lancaster", "zipcode": 14086 }, "geometry": { "type": "Point", "coordinates": [ -78.6848, 42.8928 ] } },
{ "type": "Feature", "properties": { "name": "Comprehensive Rehabilitation And Nursing Center At Williamsville", "entity_id": 150369, "beds": 142.0, "address": "147 Reist Street", "city": "Williamsville", "zipcode": 14221 }, "geometry": { "type": "Point", "coordinates": [ -78.7515, 42.9657 ] } },
{ "type": "Feature", "properties": { "name": "Brooklyn-Queens Nursing Home", "entity_id": 150370, "beds": 140.0, "address": "2749 Linden Blvd", "city": "Brooklyn", "zipcode": 11208 }, "geometry": { "type": "Point", "coordinates": [ -73.8628, 40.6697 ] } },
{ "type": "Feature", "properties": { "name": "Absolut Center For Nursing And Rehabilitation At Aurora Park, Llc", "entity_id": 150371, "beds": 320.0, "address": "292 Main Street", "city": "East Aurora", "zipcode": 14052 }, "geometry": { "type": "Point", "coordinates": [ -78.6235, 42.7681 ] } },
{ "type": "Feature", "properties": { "name": "Jennie B Richmond Chaffee Nursing Home Company Inc", "entity_id": 150372, "beds": 80.0, "address": "222 East Main Street", "city": "Springville", "zipcode": 14141 }, "geometry": { "type": "Point", "coordinates": [ -78.6592, 42.5086 ] } },
{ "type": "Feature", "properties": { "name": "Fiddlers Green Manor Rehabilitation And Nursing Center", "entity_id": 150373, "beds": 82.0, "address": "168 West Main Street", "city": "Springville", "zipcode": 14141 }, "geometry": { "type": "Point", "coordinates": [ -78.6735, 42.5088 ] } },
{ "type": "Feature", "properties": { "name": "Beechwood Homes", "entity_id": 150375, "beds": 272.0, "address": "2235 Millersport Highway", "city": "Getzville", "zipcode": 14068 }, "geometry": { "type": "Point", "coordinates": [ -78.773, 43.0092 ] } },
{ "type": "Feature", "properties": { "name": "Garden Gate Health Care Facility", "entity_id": 150377, "beds": 184.0, "address": "2365 Union Road", "city": "Cheektowaga", "zipcode": 14227 }, "geometry": { "type": "Point", "coordinates": [ -78.7533, 42.8764 ] } },
{ "type": "Feature", "properties": { "name": "Brothers Of Mercy Nursing & Rehabilitation Center", "entity_id": 150378, "beds": 240.0, "address": "10570 Bergtold Road", "city": "Clarence", "zipcode": 14031 }, "geometry": { "type": "Point", "coordinates": [ -78.5942, 42.9661 ] } },
{ "type": "Feature", "properties": { "name": "Elderwood At Grand Island", "entity_id": 150379, "beds": 90.0, "address": "2850 Grand Island Blvd", "city": "Grand Island", "zipcode": 14072 }, "geometry": { "type": "Point", "coordinates": [ -78.9794, 43.0391 ] } },
{ "type": "Feature", "properties": { "name": "Seneca Health Care Center", "entity_id": 150380, "beds": 160.0, "address": "2987 Seneca Street", "city": "West Seneca", "zipcode": 14224 }, "geometry": { "type": "Point", "coordinates": [ -78.7825, 42.8396 ] } },
{ "type": "Feature", "properties": { "name": "Essex Center For Rehabilitation And Healthcare", "entity_id": 150381, "beds": 100.0, "address": "81 Park Street", "city": "Elizabethtown", "zipcode": 12932 }, "geometry": { "type": "Point", "coordinates": [ -73.5962, 44.215 ] } },
{ "type": "Feature", "properties": { "name": "Elderwood At Ticonderoga", "entity_id": 150382, "beds": 84.0, "address": "101 Adirondack Drive", "city": "Ticonderoga", "zipcode": 12883 }, "geometry": { "type": "Point", "coordinates": [ -73.4356, 43.8495 ] } },
{ "type": "Feature", "properties": { "name": "Elderwood Of Uihlein At Lake Placid", "entity_id": 150383, "beds": 156.0, "address": "185 Old Military Road", "city": "Lake Placid", "zipcode": 12946 }, "geometry": { "type": "Point", "coordinates": [ -73.9833, 44.266 ] } },
{ "type": "Feature", "properties": { "name": "Mercy Living Center", "entity_id": 150384, "beds": 60.0, "address": "114 Wawbeek Ave", "city": "Tupper Lake", "zipcode": 12986 }, "geometry": { "type": "Point", "coordinates": [ -74.4628, 44.217 ] } },
{ "type": "Feature", "properties": { "name": "Alice Hyde Medical Center", "entity_id": 150385, "beds": 135.0, "address": "45 Sixth Street", "city": "Malone", "zipcode": 12953 }, "geometry": { "type": "Point", "coordinates": [ -74.2908, 44.8573 ] } },
{ "type": "Feature", "properties": { "name": "Nathan Littauer Hospital Nursing Home", "entity_id": 150387, "beds": 84.0, "address": "99 East State Street", "city": "Gloversville", "zipcode": 12078 }, "geometry": { "type": "Point", "coordinates": [ -74.3306, 43.0681 ] } },
{ "type": "Feature", "properties": { "name": "Wells Nursing Home Inc", "entity_id": 150388, "beds": 100.0, "address": "201 W Madison Avenue", "city": "Johnstown", "zipcode": 12095 }, "geometry": { "type": "Point", "coordinates": [ -74.3757, 43.0009 ] } },
{ "type": "Feature", "properties": { "name": "Fulton Center For Rehabilitation And Healthcare", "entity_id": 150389, "beds": 176.0, "address": "847 Cohwy 122", "city": "Gloversville", "zipcode": 12078 }, "geometry": { "type": "Point", "coordinates": [ -74.3705, 43.0723 ] } },
{ "type": "Feature", "properties": { "name": "The Grand Rehabilitation And Nursing At Batavia", "entity_id": 150390, "beds": 62.0, "address": "257 State St", "city": "Batavia", "zipcode": 14020 }, "geometry": { "type": "Point", "coordinates": [ -78.1818, 43.0098 ] } },
{ "type": "Feature", "properties": { "name": "Premier Genesee Center For Nursing And Rehabilitation", "entity_id": 150391, "beds": 160.0, "address": "278 Bank Street", "city": "Batavia", "zipcode": 14020 }, "geometry": { "type": "Point", "coordinates": [ -78.1775, 43.0087 ] } },
{ "type": "Feature", "properties": { "name": "The Pines At Catskill Center For Nursing & Rehabilitation", "entity_id": 150392, "beds": 136.0, "address": "154 Jefferson Heights", "city": "Catskill", "zipcode": 12414 }, "geometry": { "type": "Point", "coordinates": [ -73.8777, 42.2316 ] } },
{ "type": "Feature", "properties": { "name": "Greene Meadows Nursing And Rehabilitation Center", "entity_id": 150393, "beds": 120.0, "address": "161 Jefferson Heights", "city": "Catskill", "zipcode": 12414 }, "geometry": { "type": "Point", "coordinates": [ -73.8783, 42.2318 ] } },
{ "type": "Feature", "properties": { "name": "The Grand Rehabilitation And Nursing At Mohawk", "entity_id": 150394, "beds": 120.0, "address": "99 Sixth Avenue", "city": "Ilion", "zipcode": 13357 }, "geometry": { "type": "Point", "coordinates": [ -75.0473, 43.0184 ] } },
{ "type": "Feature", "properties": { "name": "Foltsbrook Center For Nursing And Rehabilitation", "entity_id": 150395, "beds": 163.0, "address": "104 North Washington Street", "city": "Herkimer", "zipcode": 13350 }, "geometry": { "type": "Point", "coordinates": [ -74.9846, 43.0263 ] } },
{ "type": "Feature", "properties": { "name": "Alpine Rehabilitation And Nursing Center", "entity_id": 150396, "beds": 80.0, "address": "755 East Monroe Street", "city": "Little Falls", "zipcode": 13365 }, "geometry": { "type": "Point", "coordinates": [ -74.8516, 43.0532 ] } },
{ "type": "Feature", "properties": { "name": "Samaritan Keep Nursing Home Inc", "entity_id": 150397, "beds": 272.0, "address": "133 Pratt St", "city": "Watertown", "zipcode": 13601 }, "geometry": { "type": "Point", "coordinates": [ -75.9142, 43.9644 ] } },
{ "type": "Feature", "properties": { "name": "Carthage Center For Rehabilitaiton And Nursing", "entity_id": 150401, "beds": 90.0, "address": "1045 West Street", "city": "Carthage", "zipcode": 13619 }, "geometry": { "type": "Point", "coordinates": [ -75.592, 43.9868 ] } },
{ "type": "Feature", "properties": { "name": "Lewis County General Hospital-Nursing Home Unit", "entity_id": 150402, "beds": 160.0, "address": "7785 North State Street", "city": "Lowville", "zipcode": 13367 }, "geometry": { "type": "Point", "coordinates": [ -75.4981, 43.7957 ] } },
{ "type": "Feature", "properties": { "name": "Avon Nursing Home, Llc", "entity_id": 150403, "beds": 40.0, "address": "215 Clinton Street", "city": "Avon", "zipcode": 14414 }, "geometry": { "type": "Point", "coordinates": [ -77.7383, 42.9077 ] } },
{ "type": "Feature", "properties": { "name": "Livingston County Center For Nursing And Rehabilitation", "entity_id": 150404, "beds": 266.0, "address": "11 Murray Hill Drive", "city": "MT Morris", "zipcode": 14510 }, "geometry": { "type": "Point", "coordinates": [ -77.8808, 42.7292 ] } },
{ "type": "Feature", "properties": { "name": "Conesus Lake Nursing Home", "entity_id": 150405, "beds": 48.0, "address": "6131 Big Tree Road, Box F", "city": "Livonia", "zipcode": 14487 }, "geometry": { "type": "Point", "coordinates": [ -77.6863, 42.8261 ] } },
{ "type": "Feature", "properties": { "name": "Oneida Health Rehabilitation And Extended Care", "entity_id": 150406, "beds": 160.0, "address": "323 Genesee Street", "city": "Oneida", "zipcode": 13421 }, "geometry": { "type": "Point", "coordinates": [ -75.6546, 43.0787 ] } },
{ "type": "Feature", "properties": { "name": "The Grand Rehabilitation And Nursing At Chittenango", "entity_id": 150408, "beds": 80.0, "address": "331 Russell Street", "city": "Chittenango", "zipcode": 13037 }, "geometry": { "type": "Point", "coordinates": [ -75.8696, 43.0493 ] } },
{ "type": "Feature", "properties": { "name": "Aaron Manor Rehabilitation And Nursing Center", "entity_id": 150409, "beds": 140.0, "address": "100 St. Camillus Way", "city": "Fairport", "zipcode": 14450 }, "geometry": { "type": "Point", "coordinates": [ -77.4417, 43.1215 ] } },
{ "type": "Feature", "properties": { "name": "The Brook At High Falls Nursing Home And Rehabilitation Center", "entity_id": 150410, "beds": 28.0, "address": "2150 St. Paul Street", "city": "Rochester", "zipcode": 14621 }, "geometry": { "type": "Point", "coordinates": [ -77.6178, 43.1957 ] } },
{ "type": "Feature", "properties": { "name": "The Shore Winds, Llc", "entity_id": 150411, "beds": 229.0, "address": "425 Beach Avenue", "city": "Rochester", "zipcode": 14612 }, "geometry": { "type": "Point", "coordinates": [ -77.6147, 43.2624 ] } },
{ "type": "Feature", "properties": { "name": "Monroe Community Hospital", "entity_id": 150412, "beds": 566.0, "address": "435 East Henrietta Road", "city": "Rochester", "zipcode": 14620 }, "geometry": { "type": "Point", "coordinates": [ -77.6162, 43.1123 ] } },
{ "type": "Feature", "properties": { "name": "St Johns Health Care Corporation", "entity_id": 150413, "beds": 455.0, "address": "150 Highland Avenue", "city": "Rochester", "zipcode": 14620 }, "geometry": { "type": "Point", "coordinates": [ -77.6097, 43.13 ] } },
{ "type": "Feature", "properties": { "name": "Church Home Of The Protestant Episcopal Church", "entity_id": 150414, "beds": 182.0, "address": "505 Mt Hope Avenue", "city": "Rochester", "zipcode": 14620 }, "geometry": { "type": "Point", "coordinates": [ -77.6138, 43.1402 ] } },
{ "type": "Feature", "properties": { "name": "Brighton Manor", "entity_id": 150415, "beds": 80.0, "address": "989 Blossom Road", "city": "Rochester", "zipcode": 14610 }, "geometry": { "type": "Point", "coordinates": [ -77.5448, 43.1493 ] } },
{ "type": "Feature", "properties": { "name": "The Pearl Nursing Center Of Rochester", "entity_id": 150417, "beds": 120.0, "address": "1335 Portland Avenue", "city": "Rochester", "zipcode": 14621 }, "geometry": { "type": "Point", "coordinates": [ -77.5844, 43.1902 ] } },
{ "type": "Feature", "properties": { "name": "Wesley Gardens Corporation", "entity_id": 150418, "beds": 200.0, "address": "3 Upton Park", "city": "Rochester", "zipcode": 14607 }, "geometry": { "type": "Point", "coordinates": [ -77.5865, 43.1542 ] } },
{ "type": "Feature", "properties": { "name": "Wedgewood Nursing And Rehabilitation Center", "entity_id": 150419, "beds": 29.0, "address": "5 Church Street", "city": "Spencerport", "zipcode": 14559 }, "geometry": { "type": "Point", "coordinates": [ -77.8021, 43.1926 ] } },
{ "type": "Feature", "properties": { "name": "Fairport Baptist Homes", "entity_id": 150420, "beds": 142.0, "address": "4646 Nine Mile Point Road", "city": "Fairport", "zipcode": 14450 }, "geometry": { "type": "Point", "coordinates": [ -77.4417, 43.1099 ] } },
{ "type": "Feature", "properties": { "name": "Maplewood Nursing Home Inc", "entity_id": 150421, "beds": 72.0, "address": "100 Daniel Drive", "city": "Webster", "zipcode": 14580 }, "geometry": { "type": "Point", "coordinates": [ -77.4351, 43.213 ] } },
{ "type": "Feature", "properties": { "name": "The Brightonian, Inc", "entity_id": 150422, "beds": 54.0, "address": "1919 Elmwood Avenue", "city": "Rochester", "zipcode": 14620 }, "geometry": { "type": "Point", "coordinates": [ -77.5864, 43.1257 ] } },
{ "type": "Feature", "properties": { "name": "The Friendly Home", "entity_id": 150423, "beds": 200.0, "address": "3156 East Avenue", "city": "Rochester", "zipcode": 14618 }, "geometry": { "type": "Point", "coordinates": [ -77.5277, 43.1269 ] } },
{ "type": "Feature", "properties": { "name": "The Hurlbut", "entity_id": 150424, "beds": 160.0, "address": "1177 East Henrietta Rd", "city": "Rochester", "zipcode": 14623 }, "geometry": { "type": "Point", "coordinates": [ -77.6133, 43.0974 ] } },
{ "type": "Feature", "properties": { "name": "Woodside Manor Nursing Home Inc", "entity_id": 150425, "beds": 44.0, "address": "2425 Clinton Avenue South", "city": "Rochester", "zipcode": 14618 }, "geometry": { "type": "Point", "coordinates": [ -77.5979, 43.1109 ] } },
{ "type": "Feature", "properties": { "name": "Elderwood Of Lakeside At Brockport", "entity_id": 150426, "beds": 120.0, "address": "170 West Avenue", "city": "Brockport", "zipcode": 14420 }, "geometry": { "type": "Point", "coordinates": [ -77.9455, 43.2201 ] } },
{ "type": "Feature", "properties": { "name": "Creekview Nursing And Rehab Center", "entity_id": 150427, "beds": 124.0, "address": "525 Beahan Road", "city": "Rochester", "zipcode": 14624 }, "geometry": { "type": "Point", "coordinates": [ -77.6862, 43.1284 ] } },
{ "type": "Feature", "properties": { "name": "Hamilton Manor Nursing Home", "entity_id": 150428, "beds": 40.0, "address": "1172 Long Pond Road", "city": "Rochester", "zipcode": 14626 }, "geometry": { "type": "Point", "coordinates": [ -77.6959, 43.2158 ] } },
{ "type": "Feature", "properties": { "name": "Latta Road Nursing Home West", "entity_id": 150429, "beds": 40.0, "address": "2100 Latta Road", "city": "Rochester", "zipcode": 14612 }, "geometry": { "type": "Point", "coordinates": [ -77.6668, 43.253 ] } },
{ "type": "Feature", "properties": { "name": "Park Ridge Nursing Home", "entity_id": 150430, "beds": 120.0, "address": "1555 Long Pond Road", "city": "Rochester", "zipcode": 14626 }, "geometry": { "type": "Point", "coordinates": [ -77.7015, 43.1916 ] } },
{ "type": "Feature", "properties": { "name": "Latta Road Nursing Home East", "entity_id": 150431, "beds": 40.0, "address": "2102 Latta Road", "city": "Rochester", "zipcode": 14612 }, "geometry": { "type": "Point", "coordinates": [ -77.6668, 43.253 ] } },
{ "type": "Feature", "properties": { "name": "St Anns Community", "entity_id": 150432, "beds": 470.0, "address": "1500 Portland Avenue", "city": "Rochester", "zipcode": 14621 }, "geometry": { "type": "Point", "coordinates": [ -77.5844, 43.1935 ] } },
{ "type": "Feature", "properties": { "name": "St Anns Community", "entity_id": 150433, "beds": 72.0, "address": "920 Cherry Ridge Boulevard", "city": "Webster", "zipcode": 14580 }, "geometry": { "type": "Point", "coordinates": [ -77.4697, 43.209 ] } },
{ "type": "Feature", "properties": { "name": "Penfield Place", "entity_id": 150434, "beds": 48.0, "address": "1700 Penfield Rd", "city": "Penfield", "zipcode": 14526 }, "geometry": { "type": "Point", "coordinates": [ -77.486, 43.1296 ] } },
{ "type": "Feature", "properties": { "name": "Hill Haven Nursing Home", "entity_id": 150435, "beds": 288.0, "address": "1550 Empire Blvd", "city": "Webster", "zipcode": 14580 }, "geometry": { "type": "Point", "coordinates": [ -77.5087, 43.1806 ] } },
{ "type": "Feature", "properties": { "name": "Crest Manor Living And Rehabilitation Center", "entity_id": 150436, "beds": 80.0, "address": "6745 Pittsford-Palmyra Road", "city": "Fairport", "zipcode": 14450 }, "geometry": { "type": "Point", "coordinates": [ -77.4412, 43.0691 ] } },
{ "type": "Feature", "properties": { "name": "Wilkinson Residential Health Care Facility", "entity_id": 150437, "beds": 160.0, "address": "4988 Sthwy 30", "city": "Amsterdam", "zipcode": 12010 }, "geometry": { "type": "Point", "coordinates": [ -74.1863, 42.9612 ] } },
{ "type": "Feature", "properties": { "name": "River Ridge Living Center", "entity_id": 150438, "beds": 120.0, "address": "100 Sandy Drive", "city": "Amsterdam", "zipcode": 12010 }, "geometry": { "type": "Point", "coordinates": [ -74.2053, 42.9376 ] } },
{ "type": "Feature", "properties": { "name": "Capstone Center For Rehabilitation And Nursing", "entity_id": 150439, "beds": 120.0, "address": "302 Swart Hill Road", "city": "Amsterdam", "zipcode": 12010 }, "geometry": { "type": "Point", "coordinates": [ -74.1043, 42.9144 ] } },
{ "type": "Feature", "properties": { "name": "Palatine Nursing Home", "entity_id": 150440, "beds": 70.0, "address": "154 Lafayette Street", "city": "Palatine Bridge", "zipcode": 13428 }, "geometry": { "type": "Point", "coordinates": [ -74.5704, 42.9208 ] } },
{ "type": "Feature", "properties": { "name": "Glengariff Rehabilitation And Healthcare Center", "entity_id": 150441, "beds": 262.0, "address": "141 Dosoris Lane", "city": "Glen Cove", "zipcode": 11542 }, "geometry": { "type": "Point", "coordinates": [ -73.6302, 40.881 ] } },
{ "type": "Feature", "properties": { "name": "Emerge Nursing And Rehabilitation At Glen Cove", "entity_id": 150442, "beds": 102.0, "address": "2 Medical Plaza", "city": "Glen Cove", "zipcode": 11542 }, "geometry": { "type": "Point", "coordinates": [ -73.623, 40.8747 ] } },
{ "type": "Feature", "properties": { "name": "Glen Cove Center For Nursing And Rehabilitation", "entity_id": 150443, "beds": 154.0, "address": "6 Medical Plaza", "city": "Glen Cove", "zipcode": 11542 }, "geometry": { "type": "Point", "coordinates": [ -73.623, 40.8746 ] } },
{ "type": "Feature", "properties": { "name": "Beach Terrace Care Center", "entity_id": 150444, "beds": 182.0, "address": "640 West Broadway", "city": "Long Beach", "zipcode": 11561 }, "geometry": { "type": "Point", "coordinates": [ -73.6828, 40.5844 ] } },
{ "type": "Feature", "properties": { "name": "Grandell Rehabilitation And Nursing Center", "entity_id": 150445, "beds": 278.0, "address": "645 W Broadway", "city": "Long Beach", "zipcode": 11561 }, "geometry": { "type": "Point", "coordinates": [ -73.6829, 40.5847 ] } },
{ "type": "Feature", "properties": { "name": "Long Beach Nursing And Rehabilitation Center", "entity_id": 150446, "beds": 150.0, "address": "375 East Bay Drive", "city": "Long Beach", "zipcode": 11561 }, "geometry": { "type": "Point", "coordinates": [ -73.6535, 40.5943 ] } },
{ "type": "Feature", "properties": { "name": "South Shore Rehabilitation And Nursing Center", "entity_id": 150447, "beds": 100.0, "address": "275 W Merrick Road", "city": "Freeport", "zipcode": 11520 }, "geometry": { "type": "Point", "coordinates": [ -73.5919, 40.6523 ] } },
{ "type": "Feature", "properties": { "name": "Hempstead Park Nursing Home", "entity_id": 150448, "beds": 251.0, "address": "800 Front Street", "city": "Hempstead", "zipcode": 11550 }, "geometry": { "type": "Point", "coordinates": [ -73.6022, 40.7093 ] } },
{ "type": "Feature", "properties": { "name": "Mayfair Care Center", "entity_id": 150449, "beds": 200.0, "address": "100 Baldwin Road", "city": "Hempstead", "zipcode": 11550 }, "geometry": { "type": "Point", "coordinates": [ -73.6159, 40.6978 ] } },
{ "type": "Feature", "properties": { "name": "The Grand Pavilion For Rehab & Nursing At Rockville Centre", "entity_id": 150450, "beds": 158.0, "address": "41 Maine Avenue", "city": "Rockville Centre", "zipcode": 11570 }, "geometry": { "type": "Point", "coordinates": [ -73.6512, 40.664 ] } },
{ "type": "Feature", "properties": { "name": "Rockville Skilled Nursing & Rehabilitation Center, Llc", "entity_id": 150451, "beds": 66.0, "address": "50 Maine Avenue", "city": "Rockville Centre", "zipcode": 11570 }, "geometry": { "type": "Point", "coordinates": [ -73.6503, 40.6639 ] } },
{ "type": "Feature", "properties": { "name": "Lynbrook Restorative Therapy And Nursing", "entity_id": 150452, "beds": 100.0, "address": "243 Atlantic Avenue", "city": "Lynbrook", "zipcode": 11563 }, "geometry": { "type": "Point", "coordinates": [ -73.6673, 40.6499 ] } },
{ "type": "Feature", "properties": { "name": "The Grand Rehabilitation And Nursing At Great Neck", "entity_id": 150453, "beds": 214.0, "address": "15 St Pauls Place", "city": "Great Neck", "zipcode": 11021 }, "geometry": { "type": "Point", "coordinates": [ -73.7224, 40.7888 ] } },
{ "type": "Feature", "properties": { "name": "Daleview Care Center", "entity_id": 150454, "beds": 142.0, "address": "574 Fulton Street", "city": "Farmingdale", "zipcode": 11735 }, "geometry": { "type": "Point", "coordinates": [ -73.4482, 40.7284 ] } },
{ "type": "Feature", "properties": { "name": "Belair Care Center Inc", "entity_id": 150455, "beds": 102.0, "address": "2478 Jerusalem Ave", "city": "No Bellmore", "zipcode": 11710 }, "geometry": { "type": "Point", "coordinates": [ -73.5405, 40.6911 ] } },
{ "type": "Feature", "properties": { "name": "A Holly Patterson Extended Care Facility", "entity_id": 150456, "beds": 589.0, "address": "875 Jerusalem Avenue", "city": "Uniondale", "zipcode": 11553 }, "geometry": { "type": "Point", "coordinates": [ -73.5856, 40.6975 ] } },
{ "type": "Feature", "properties": { "name": "Oceanside Care Center Inc", "entity_id": 150457, "beds": 100.0, "address": "2914 Lincoln Avenue", "city": "Oceanside", "zipcode": 11572 }, "geometry": { "type": "Point", "coordinates": [ -73.6421, 40.6404 ] } },
{ "type": "Feature", "properties": { "name": "Garden Care Center", "entity_id": 150458, "beds": 150.0, "address": "135 Franklin Avenue", "city": "Franklin Square", "zipcode": 11010 }, "geometry": { "type": "Point", "coordinates": [ -73.6771, 40.7047 ] } },
{ "type": "Feature", "properties": { "name": "The Five Towns Premier Rehabilitation & Nursing Center", "entity_id": 150459, "beds": 280.0, "address": "1050 Central Avenue", "city": "Woodmere", "zipcode": 11598 }, "geometry": { "type": "Point", "coordinates": [ -73.7079, 40.6323 ] } },
{ "type": "Feature", "properties": { "name": "Sands Point Center For Health And Rehabilitation", "entity_id": 150460, "beds": 180.0, "address": "1440 Port Washington Blvd", "city": "Port Washington", "zipcode": 11050 }, "geometry": { "type": "Point", "coordinates": [ -73.6902, 40.8431 ] } },
{ "type": "Feature", "properties": { "name": "Highfield Gardens Care Center Of Great Neck", "entity_id": 150461, "beds": 200.0, "address": "199 Community Drive", "city": "Great Neck", "zipcode": 11021 }, "geometry": { "type": "Point", "coordinates": [ -73.7051, 40.7859 ] } },
{ "type": "Feature", "properties": { "name": "Sunharbor Manor", "entity_id": 150462, "beds": 266.0, "address": "255 Warner Avenue", "city": "Roslyn Heights", "zipcode": 11577 }, "geometry": { "type": "Point", "coordinates": [ -73.6449, 40.7919 ] } },
{ "type": "Feature", "properties": { "name": "Parkview Care And Rehabilitation Center, Inc.", "entity_id": 150463, "beds": 169.0, "address": "5353 Merrick Road", "city": "Massapequa", "zipcode": 11758 }, "geometry": { "type": "Point", "coordinates": [ -73.4386, 40.6679 ] } },
{ "type": "Feature", "properties": { "name": "Cold Spring Hills Center For Nursing And Rehabilitation", "entity_id": 150464, "beds": 588.0, "address": "378 Syosset-Woodbury Road", "city": "Woodbury", "zipcode": 11797 }, "geometry": { "type": "Point", "coordinates": [ -73.4701, 40.8256 ] } },
{ "type": "Feature", "properties": { "name": "Excel At Woodbury For Rehabilitation And Nursing, Llc", "entity_id": 150465, "beds": 123.0, "address": "8533 Jericho Tpke", "city": "Woodbury", "zipcode": 11797 }, "geometry": { "type": "Point", "coordinates": [ -73.458, 40.8186 ] } },
{ "type": "Feature", "properties": { "name": "Central Island Healthcare", "entity_id": 150466, "beds": 202.0, "address": "825 Old Country Rd", "city": "Plainview", "zipcode": 11803 }, "geometry": { "type": "Point", "coordinates": [ -73.4804, 40.7739 ] } },
{ "type": "Feature", "properties": { "name": "The Grand Rehabilitation And Nursing At South Point", "entity_id": 150467, "beds": 185.0, "address": "One Long Beach Road", "city": "Island Park", "zipcode": 11558 }, "geometry": { "type": "Point", "coordinates": [ -73.6559, 40.5992 ] } },
{ "type": "Feature", "properties": { "name": "Lockport Rehab & Health Care Center", "entity_id": 150468, "beds": 82.0, "address": "909 Lincoln Ave", "city": "Lockport", "zipcode": 14094 }, "geometry": { "type": "Point", "coordinates": [ -78.6717, 43.1535 ] } },
{ "type": "Feature", "properties": { "name": "Elderwood At Lockport", "entity_id": 150469, "beds": 126.0, "address": "104 Old Niagara Road", "city": "Lockport", "zipcode": 14094 }, "geometry": { "type": "Point", "coordinates": [ -78.6702, 43.1868 ] } },
{ "type": "Feature", "properties": { "name": "Schoellkopf Health Center", "entity_id": 150470, "beds": 120.0, "address": "621 Tenth Street", "city": "Niagara Falls", "zipcode": 14302 }, "geometry": { "type": "Point", "coordinates": [ -79.0504, 43.094 ] } },
{ "type": "Feature", "properties": { "name": "Niagara Rehabilitation And Nursing Center", "entity_id": 150471, "beds": 160.0, "address": "822 Cedar Avenue", "city": "Niagara Falls", "zipcode": 14301 }, "geometry": { "type": "Point", "coordinates": [ -79.0521, 43.0967 ] } },
{ "type": "Feature", "properties": { "name": "Degraff Memorial Hospital-Skilled Nursing Facility", "entity_id": 150472, "beds": 80.0, "address": "445 Tremont Street", "city": "North Tonawanda", "zipcode": 14120 }, "geometry": { "type": "Point", "coordinates": [ -78.8625, 43.0262 ] } },
{ "type": "Feature", "properties": { "name": "Newfane Rehab & Health Care Center", "entity_id": 150474, "beds": 165.0, "address": "2709 Transit Rd", "city": "Newfane", "zipcode": 14108 }, "geometry": { "type": "Point", "coordinates": [ -78.6967, 43.2831 ] } },
{ "type": "Feature", "properties": { "name": "Absolut Center For Nursing And Rehabilitation At Gasport, Llc", "entity_id": 150475, "beds": 83.0, "address": "4540 Lincoln Drive", "city": "Gasport", "zipcode": 14067 }, "geometry": { "type": "Point", "coordinates": [ -78.5733, 43.1936 ] } },
{ "type": "Feature", "properties": { "name": "Rome Memorial Hospital, Inc - Rhcf", "entity_id": 150476, "beds": 80.0, "address": "1500 North James Street", "city": "Rome", "zipcode": 13440 }, "geometry": { "type": "Point", "coordinates": [ -75.4435, 43.2299 ] } },
{ "type": "Feature", "properties": { "name": "Colonial Park Rehabilitation And Nursing Center", "entity_id": 150477, "beds": 80.0, "address": "950 Floyd Avenue", "city": "Rome", "zipcode": 13440 }, "geometry": { "type": "Point", "coordinates": [ -75.4362, 43.2176 ] } },
{ "type": "Feature", "properties": { "name": "The Grand Rehabilitation And Nursing At Rome", "entity_id": 150478, "beds": 160.0, "address": "801 North James Street", "city": "Rome", "zipcode": 13440 }, "geometry": { "type": "Point", "coordinates": [ -75.4503, 43.2203 ] } },
{ "type": "Feature", "properties": { "name": "Bethany Gardens Skilled Living Center", "entity_id": 150479, "beds": 100.0, "address": "800 West Chestnut Street", "city": "Rome", "zipcode": 13440 }, "geometry": { "type": "Point", "coordinates": [ -75.4524, 43.2362 ] } },
{ "type": "Feature", "properties": { "name": "Betsy Ross Rehabilitation Center, Inc", "entity_id": 150480, "beds": 120.0, "address": "1 Elsie Street", "city": "Rome", "zipcode": 13440 }, "geometry": { "type": "Point", "coordinates": [ -75.4661, 43.2321 ] } },
{ "type": "Feature", "properties": { "name": "Katherine Luther Residential Health Care And Rehabilitation Center", "entity_id": 150481, "beds": 280.0, "address": "110 Utica Road", "city": "Clinton", "zipcode": 13323 }, "geometry": { "type": "Point", "coordinates": [ -75.3636, 43.0575 ] } },
{ "type": "Feature", "properties": { "name": "Masonic Care Community Of New York", "entity_id": 150482, "beds": 320.0, "address": "2150 Bleecker Street", "city": "Utica", "zipcode": 13501 }, "geometry": { "type": "Point", "coordinates": [ -75.1894, 43.0891 ] } },
{ "type": "Feature", "properties": { "name": "Utica Rehabilitation & Nursing Center", "entity_id": 150483, "beds": 120.0, "address": "2535 Genesee Street", "city": "Utica", "zipcode": 13501 }, "geometry": { "type": "Point", "coordinates": [ -75.2745, 43.0799 ] } },
{ "type": "Feature", "properties": { "name": "The Pines At Utica Center For Nursing & Rehabilitation", "entity_id": 150484, "beds": 117.0, "address": "1800 Butterfield Ave", "city": "Utica", "zipcode": 13501 }, "geometry": { "type": "Point", "coordinates": [ -75.2547, 43.0866 ] } },
{ "type": "Feature", "properties": { "name": "The Grand Rehabilitation And Nursing At Utica", "entity_id": 150485, "beds": 220.0, "address": "1657 Sunset Ave", "city": "Utica", "zipcode": 13502 }, "geometry": { "type": "Point", "coordinates": [ -75.2569, 43.091 ] } },
{ "type": "Feature", "properties": { "name": "Sunset Nursing And Rehabilitation Center, Inc.", "entity_id": 150486, "beds": 120.0, "address": "232 Academy Street", "city": "Boonville", "zipcode": 13309 }, "geometry": { "type": "Point", "coordinates": [ -75.3327, 43.4788 ] } },
{ "type": "Feature", "properties": { "name": "Waterville Residential Care Center", "entity_id": 150487, "beds": 92.0, "address": "220 Tower Street", "city": "Waterville", "zipcode": 13480 }, "geometry": { "type": "Point", "coordinates": [ -75.3835, 42.9305 ] } },
{ "type": "Feature", "properties": { "name": "Charles T Sitrin Health Care Center Inc", "entity_id": 150488, "beds": 187.0, "address": "2050 Tilden Avenue", "city": "New Hartford", "zipcode": 13413 }, "geometry": { "type": "Point", "coordinates": [ -75.2288, 43.055 ] } },
{ "type": "Feature", "properties": { "name": "Presbyterian Home For Central New York Inc", "entity_id": 150489, "beds": 236.0, "address": "4290 Middle Settlement Road", "city": "New Hartford", "zipcode": 13413 }, "geometry": { "type": "Point", "coordinates": [ -75.3429, 43.0723 ] } },
{ "type": "Feature", "properties": { "name": "Trustees Of The Eastern Star Hall And Home Of The State Of New York", "entity_id": 150490, "beds": 84.0, "address": "8290 State Rt 69 (po Box S)", "city": "Oriskany", "zipcode": 13424 }, "geometry": { "type": "Point", "coordinates": [ -75.3395, 43.1648 ] } },
{ "type": "Feature", "properties": { "name": "Fox Run At Orchard Park", "entity_id": 150491, "beds": 60.0, "address": "One Fox Run Lane", "city": "Orchard Park", "zipcode": 14127 }, "geometry": { "type": "Point", "coordinates": [ -78.7747, 42.7646 ] } },
{ "type": "Feature", "properties": { "name": "Buffalo Community Healthcare Center", "entity_id": 150492, "beds": 95.0, "address": "1205 Delaware Avenue", "city": "Buffalo", "zipcode": 14209 }, "geometry": { "type": "Point", "coordinates": [ -78.8688, 42.9166 ] } },
{ "type": "Feature", "properties": { "name": "Jewish Home Of Central New York", "entity_id": 150493, "beds": 132.0, "address": "4101 E Genesee St", "city": "Syracuse", "zipcode": 13214 }, "geometry": { "type": "Point", "coordinates": [ -76.0758, 43.037 ] } },
{ "type": "Feature", "properties": { "name": "Loretto Health And Rehabilitation Center", "entity_id": 150494, "beds": 583.0, "address": "700 East Brighton Avenue", "city": "Syracuse", "zipcode": 13205 }, "geometry": { "type": "Point", "coordinates": [ -76.1328, 43.0091 ] } },
{ "type": "Feature", "properties": { "name": "Van Duyn Center For Rehabilitation And Nursing", "entity_id": 150495, "beds": 513.0, "address": "5075 West Seneca Turnpike", "city": "Syracuse", "zipcode": 13215 }, "geometry": { "type": "Point", "coordinates": [ -76.1665, 43.0055 ] } },
{ "type": "Feature", "properties": { "name": "Houghton Rehabilitation & Nursing Center", "entity_id": 150496, "beds": 100.0, "address": "9876 Luckey Dr", "city": "Houghton", "zipcode": 14744 }, "geometry": { "type": "Point", "coordinates": [ -78.1629, 42.4263 ] } },
{ "type": "Feature", "properties": { "name": "Central Park Rehabilitation And Nursing Center", "entity_id": 150497, "beds": 160.0, "address": "116 Martin Luther King East", "city": "Syracuse", "zipcode": 13205 }, "geometry": { "type": "Point", "coordinates": [ 0.0, 0.0 ] } },
{ "type": "Feature", "properties": { "name": "St Camillus Residential Health Care Facility", "entity_id": 150498, "beds": 284.0, "address": "813 Fay Road", "city": "Syracuse", "zipcode": 13219 }, "geometry": { "type": "Point", "coordinates": [ -76.2082, 43.0354 ] } },
{ "type": "Feature", "properties": { "name": "Bishop Rehabilitation And Nursing Center", "entity_id": 150499, "beds": 440.0, "address": "918 James Street", "city": "Syracuse", "zipcode": 13203 }, "geometry": { "type": "Point", "coordinates": [ -76.1378, 43.0575 ] } },
{ "type": "Feature", "properties": { "name": "The Cottages At Garden Grove, A Skilled Nursing Community", "entity_id": 150500, "beds": 156.0, "address": "5460 Meltzer Court", "city": "Cicero", "zipcode": 13039 }, "geometry": { "type": "Point", "coordinates": [ -76.1367, 43.0437 ] } },
{ "type": "Feature", "properties": { "name": "Sunnyside Care Center", "entity_id": 150501, "beds": 80.0, "address": "7000 Collamer Rd", "city": "East Syracuse", "zipcode": 13057 }, "geometry": { "type": "Point", "coordinates": [ -76.0379, 43.1091 ] } },
{ "type": "Feature", "properties": { "name": "Clifton Springs Hospital And Clinic Extended Care", "entity_id": 150502, "beds": 108.0, "address": "2 Coulter Road", "city": "Clifton Springs", "zipcode": 14432 }, "geometry": { "type": "Point", "coordinates": [ -77.1389, 42.9605 ] } },
{ "type": "Feature", "properties": { "name": "M.m. Ewing Continuing Care Center", "entity_id": 150503, "beds": 178.0, "address": "350 Parrish Street", "city": "Canandaigua", "zipcode": 14424 }, "geometry": { "type": "Point", "coordinates": [ -77.2898, 42.875 ] } },
{ "type": "Feature", "properties": { "name": "Elm Manor Nursing And Rehabilitation Center", "entity_id": 150504, "beds": 46.0, "address": "210 N Main Street", "city": "Canandaigua", "zipcode": 14424 }, "geometry": { "type": "Point", "coordinates": [ -77.2862, 42.8943 ] } },
{ "type": "Feature", "properties": { "name": "Ontario Center For Rehabilitation And Healthcare", "entity_id": 150505, "beds": 98.0, "address": "3062 County Complex Drive", "city": "Canandaigua", "zipcode": 14424 }, "geometry": { "type": "Point", "coordinates": [ -77.2118, 42.8846 ] } },
{ "type": "Feature", "properties": { "name": "Highland Rehabilitation And Nursing Center", "entity_id": 150506, "beds": 98.0, "address": "120 Highland Avenue", "city": "Middletown", "zipcode": 10940 }, "geometry": { "type": "Point", "coordinates": [ -74.4187, 41.4537 ] } },
{ "type": "Feature", "properties": { "name": "Sapphire Nursing At Meadow Hill", "entity_id": 150507, "beds": 190.0, "address": "172 Meadow Hill Road", "city": "Newburgh", "zipcode": 12550 }, "geometry": { "type": "Point", "coordinates": [ -74.0893, 41.5259 ] } },
{ "type": "Feature", "properties": { "name": "The Valley View Center For Nursing Care And Rehabilitation", "entity_id": 150508, "beds": 360.0, "address": "2 Glenmere Cove Road", "city": "Goshen", "zipcode": 10924 }, "geometry": { "type": "Point", "coordinates": [ -74.3674, 41.3556 ] } },
{ "type": "Feature", "properties": { "name": "Montgomery Nursing And Rehabilitation Center", "entity_id": 150509, "beds": 100.0, "address": "2817 Albany Post Road, Box 158", "city": "Montgomery", "zipcode": 12549 }, "geometry": { "type": "Point", "coordinates": [ -74.2386, 41.5456 ] } },
{ "type": "Feature", "properties": { "name": "The Villages Of Orleans Health And Rehabilitation Center", "entity_id": 150510, "beds": 120.0, "address": "14012 Route 31", "city": "Albion", "zipcode": 14411 }, "geometry": { "type": "Point", "coordinates": [ -78.2166, 43.2406 ] } },
{ "type": "Feature", "properties": { "name": "Medina Memorial Hospital Snf", "entity_id": 150511, "beds": 30.0, "address": "200 Ohio Street", "city": "Medina", "zipcode": 14103 }, "geometry": { "type": "Point", "coordinates": [ -78.3971, 43.2236 ] } },
{ "type": "Feature", "properties": { "name": "Orchard Rehabilitation & Nursing Center", "entity_id": 150512, "beds": 160.0, "address": "600 Bates Road", "city": "Medina", "zipcode": 14103 }, "geometry": { "type": "Point", "coordinates": [ -78.3701, 43.2131 ] } },
{ "type": "Feature", "properties": { "name": "Morningstar Residential Care Center", "entity_id": 150514, "beds": 120.0, "address": "17 Sunrise Drive", "city": "Oswego", "zipcode": 13126 }, "geometry": { "type": "Point", "coordinates": [ -76.5285, 43.4457 ] } },
{ "type": "Feature", "properties": { "name": "Pontiac Nursing Home", "entity_id": 150515, "beds": 80.0, "address": "303 East River Road", "city": "Oswego", "zipcode": 13126 }, "geometry": { "type": "Point", "coordinates": [ -76.4938, 43.4448 ] } },
{ "type": "Feature", "properties": { "name": "St Luke Residential Health Care Facility Inc", "entity_id": 150517, "beds": 200.0, "address": "299 East River Road", "city": "Oswego", "zipcode": 13126 }, "geometry": { "type": "Point", "coordinates": [ -76.4939, 43.4449 ] } },
{ "type": "Feature", "properties": { "name": "Aurelia Osborn Fox Memorial Hospital", "entity_id": 150518, "beds": 130.0, "address": "One Norton Avenue", "city": "Oneonta", "zipcode": 13820 }, "geometry": { "type": "Point", "coordinates": [ -75.0533, 42.4574 ] } },
{ "type": "Feature", "properties": { "name": "Chestnut Park Rehabilitation And Nursing Center", "entity_id": 150519, "beds": 80.0, "address": "330 Chestnut Street", "city": "Oneonta", "zipcode": 13820 }, "geometry": { "type": "Point", "coordinates": [ -75.0855, 42.4529 ] } },
{ "type": "Feature", "properties": { "name": "Cooperstown Center For Rehabilitation And Nursing", "entity_id": 150520, "beds": 174.0, "address": "128 Phoenix Mills Cross Road", "city": "Cooperstown", "zipcode": 13326 }, "geometry": { "type": "Point", "coordinates": [ -74.9536, 42.6687 ] } },
{ "type": "Feature", "properties": { "name": "Putnam Nursing & Rehabilitation Center", "entity_id": 150521, "beds": 160.0, "address": "404 Ludingtonville Road", "city": "Holmes", "zipcode": 12531 }, "geometry": { "type": "Point", "coordinates": [ -73.6633, 41.4966 ] } },
{ "type": "Feature", "properties": { "name": "Van Rensselaer Manor", "entity_id": 150522, "beds": 362.0, "address": "85 Bloomingrove Drive", "city": "Troy", "zipcode": 12180 }, "geometry": { "type": "Point", "coordinates": [ -73.6822, 42.6885 ] } },
{ "type": "Feature", "properties": { "name": "Troy Center For Rehabilitation And Nursing", "entity_id": 150523, "beds": 78.0, "address": "49 Marvin Avenue", "city": "Troy", "zipcode": 12180 }, "geometry": { "type": "Point", "coordinates": [ -73.6964, 42.6973 ] } },
{ "type": "Feature", "properties": { "name": "The Center For Nursing And Rehabilitation At Hoosick Falls", "entity_id": 150524, "beds": 82.0, "address": "21 Danforth Street", "city": "Hoosick Falls", "zipcode": 12090 }, "geometry": { "type": "Point", "coordinates": [ -73.3475, 42.9095 ] } },
{ "type": "Feature", "properties": { "name": "Riverside Center For Rehabilitation And Nursing", "entity_id": 150525, "beds": 80.0, "address": "90 No Main Street", "city": "Castleton-On-hudson", "zipcode": 12033 }, "geometry": { "type": "Point", "coordinates": [ -73.7514, 42.5398 ] } },
{ "type": "Feature", "properties": { "name": "The Diamond Nursing And Rehabilitation Center", "entity_id": 150526, "beds": 120.0, "address": "100 New Turnpike Road", "city": "Troy", "zipcode": 12182 }, "geometry": { "type": "Point", "coordinates": [ -73.6635, 42.7936 ] } },
{ "type": "Feature", "properties": { "name": "Northern Riverview Health Care Center, Inc", "entity_id": 150527, "beds": 180.0, "address": "87 South Route 9w", "city": "Haverstraw", "zipcode": 10927 }, "geometry": { "type": "Point", "coordinates": [ -73.9837, 41.2023 ] } },
{ "type": "Feature", "properties": { "name": "Pine Valley Center For Rehabilitation And Nursing", "entity_id": 150528, "beds": 160.0, "address": "661 N Main St", "city": "Spring Valley", "zipcode": 10977 }, "geometry": { "type": "Point", "coordinates": [ -74.0372, 41.1362 ] } },
{ "type": "Feature", "properties": { "name": "The Willows At Ramapo Rehabilitation And Nursing Center", "entity_id": 150529, "beds": 203.0, "address": "30 Cragmere Road", "city": "Suffern", "zipcode": 10901 }, "geometry": { "type": "Point", "coordinates": [ -74.1264, 41.1023 ] } },
{ "type": "Feature", "properties": { "name": "Northern Manor Geriatric Center Inc", "entity_id": 150530, "beds": 231.0, "address": "199 N Middletown Road", "city": "Nanuet", "zipcode": 10954 }, "geometry": { "type": "Point", "coordinates": [ -74.0109, 41.1118 ] } },
{ "type": "Feature", "properties": { "name": "Tolstoy Foundation Rehabilitation And Nursing Center", "entity_id": 150531, "beds": 96.0, "address": "100 Lake Road", "city": "Valley Cottage", "zipcode": 10989 }, "geometry": { "type": "Point", "coordinates": [ -73.9321, 41.1244 ] } },
{ "type": "Feature", "properties": { "name": "Nyack Ridge Rehabilitation And Nursing Center", "entity_id": 150532, "beds": 160.0, "address": "476 Christian Herald Road", "city": "Valley Cottage", "zipcode": 10989 }, "geometry": { "type": "Point", "coordinates": [ -73.9401, 41.1172 ] } },
{ "type": "Feature", "properties": { "name": "Friedwald Center For Rehabilitation And Nursing, Llc", "entity_id": 150533, "beds": 180.0, "address": "475 New Hempstead Road", "city": "New City", "zipcode": 10956 }, "geometry": { "type": "Point", "coordinates": [ -74.0314, 41.1494 ] } },
{ "type": "Feature", "properties": { "name": "Northern Metropolitan Residential Health Care Facility Inc", "entity_id": 150535, "beds": 120.0, "address": "225 Maple Avenue", "city": "Monsey", "zipcode": 10952 }, "geometry": { "type": "Point", "coordinates": [ -74.0669, 41.116 ] } },
{ "type": "Feature", "properties": { "name": "St Josephs Home", "entity_id": 150537, "beds": 82.0, "address": "950 Linden Street", "city": "Ogdensburg", "zipcode": 13669 }, "geometry": { "type": "Point", "coordinates": [ -75.4666, 44.7003 ] } },
{ "type": "Feature", "properties": { "name": "United Helpers Nursing Home", "entity_id": 150538, "beds": 180.0, "address": "8101 State Highway 68", "city": "Ogdensburg", "zipcode": 13669 }, "geometry": { "type": "Point", "coordinates": [ -75.517, 44.6811 ] } },
{ "type": "Feature", "properties": { "name": "Highland Nursing Home Inc", "entity_id": 150539, "beds": 140.0, "address": "182 Highland Road", "city": "Massena", "zipcode": 13662 }, "geometry": { "type": "Point", "coordinates": [ -74.8551, 44.9473 ] } },
{ "type": "Feature", "properties": { "name": "Massena Rehabilitation & Nursing Center", "entity_id": 150540, "beds": 160.0, "address": "89 Grove Street", "city": "Massena", "zipcode": 13662 }, "geometry": { "type": "Point", "coordinates": [ -74.8854, 44.9232 ] } },
{ "type": "Feature", "properties": { "name": "United Helpers Canton Nursing Home", "entity_id": 150541, "beds": 96.0, "address": "205 State Street Road", "city": "Canton", "zipcode": 13617 }, "geometry": { "type": "Point", "coordinates": [ -75.1616, 44.6128 ] } },
{ "type": "Feature", "properties": { "name": "Wesley Health Care Center Inc", "entity_id": 150544, "beds": 342.0, "address": "131 Lawrence Street", "city": "Saratoga Springs", "zipcode": 12866 }, "geometry": { "type": "Point", "coordinates": [ -73.7893, 43.0884 ] } },
{ "type": "Feature", "properties": { "name": "Saratoga Center For Rehab And Skilled Nursing Care", "entity_id": 150545, "beds": 257.0, "address": "149 Ballston Avenue", "city": "Ballston Spa", "zipcode": 12020 }, "geometry": { "type": "Point", "coordinates": [ -73.8537, 42.9964 ] } },
{ "type": "Feature", "properties": { "name": "Schenectady Center For Rehabilitation And Nursing", "entity_id": 150546, "beds": 240.0, "address": "526 Altamont Ave", "city": "Schenectady", "zipcode": 12303 }, "geometry": { "type": "Point", "coordinates": [ -73.933, 42.7925 ] } },
{ "type": "Feature", "properties": { "name": "Catskill Regional Medical Center", "entity_id": 150547, "beds": 64.0, "address": "68 Bushville Road, P.o. Box 515", "city": "Harris", "zipcode": 12742 }, "geometry": { "type": "Point", "coordinates": [ -74.7278, 41.718 ] } },
{ "type": "Feature", "properties": { "name": "Kingsway Arms Nursing Center Inc", "entity_id": 150548, "beds": 160.0, "address": "323 Kings Road", "city": "Schenectady", "zipcode": 12304 }, "geometry": { "type": "Point", "coordinates": [ -73.9114, 42.7764 ] } },
{ "type": "Feature", "properties": { "name": "Baptist Health Nursing And Rehabilitation Center", "entity_id": 150549, "beds": 262.0, "address": "297 North Ballston Avenue", "city": "Scotia", "zipcode": 12302 }, "geometry": { "type": "Point", "coordinates": [ -73.9544, 42.8363 ] } },
{ "type": "Feature", "properties": { "name": "Glendale Home-Schdy Cnty Dept Social Services", "entity_id": 150550, "beds": 200.0, "address": "59 Hetcheltown Road", "city": "Scotia", "zipcode": 12302 }, "geometry": { "type": "Point", "coordinates": [ -73.9082, 42.8737 ] } },
{ "type": "Feature", "properties": { "name": "Grand Manor Nursing & Rehabilitation Center", "entity_id": 150553, "beds": 240.0, "address": "700 White Plains Road", "city": "Bronx", "zipcode": 10473 }, "geometry": { "type": "Point", "coordinates": [ -73.8577, 40.8198 ] } },
{ "type": "Feature", "properties": { "name": "Schuyler Hospital Inc And Long Term Care Unit", "entity_id": 150554, "beds": 120.0, "address": "220 Steuben Street", "city": "Montour Falls", "zipcode": 14865 }, "geometry": { "type": "Point", "coordinates": [ -76.8586, 42.3515 ] } },
{ "type": "Feature", "properties": { "name": "Seneca Nursing & Rehabilitation Center, Llc", "entity_id": 150555, "beds": 120.0, "address": "200 Douglas Drive", "city": "Waterloo", "zipcode": 13165 }, "geometry": { "type": "Point", "coordinates": [ -76.8467, 42.9064 ] } },
{ "type": "Feature", "properties": { "name": "Corning Center For Rehabilitation And Healthcare", "entity_id": 150556, "beds": 120.0, "address": "205 East First Street", "city": "Corning", "zipcode": 14830 }, "geometry": { "type": "Point", "coordinates": [ -77.046, 42.14 ] } },
{ "type": "Feature", "properties": { "name": "Hornell Gardens, Llc", "entity_id": 150557, "beds": 114.0, "address": "434 Monroe Avenue", "city": "Hornell", "zipcode": 14843 }, "geometry": { "type": "Point", "coordinates": [ -77.6586, 42.3129 ] } },
{ "type": "Feature", "properties": { "name": "Steuben Center For Rehabilitation And Healthcare", "entity_id": 150558, "beds": 105.0, "address": "7009 Rumsey Street Extension", "city": "Bath", "zipcode": 14810 }, "geometry": { "type": "Point", "coordinates": [ -77.2956, 42.3491 ] } },
{ "type": "Feature", "properties": { "name": "Berkshire Nursing & Rehabilitation Center", "entity_id": 150559, "beds": 175.0, "address": "10 Berkshire Road", "city": "W Babylon", "zipcode": 11704 }, "geometry": { "type": "Point", "coordinates": [ -73.3439, 40.7064 ] } },
{ "type": "Feature", "properties": { "name": "Massapequa Center Rehabilitation & Nursing", "entity_id": 150561, "beds": 320.0, "address": "101 Louden Ave.", "city": "Amityville", "zipcode": 11701 }, "geometry": { "type": "Point", "coordinates": [ -73.4227, 40.6841 ] } },
{ "type": "Feature", "properties": { "name": "Suffolk Center For Rehabilitation And Nursing", "entity_id": 150562, "beds": 120.0, "address": "25 Schoenfeld Blvd", "city": "Patchogue", "zipcode": 11772 }, "geometry": { "type": "Point", "coordinates": [ -72.9957, 40.7687 ] } },
{ "type": "Feature", "properties": { "name": "San Simeon By The Sound Center For Nursing & Rehabilitation", "entity_id": 150563, "beds": 120.0, "address": "61700 Route 48, Po Box 2122", "city": "Greenport", "zipcode": 11944 }, "geometry": { "type": "Point", "coordinates": [ -72.3889, 41.1003 ] } },
{ "type": "Feature", "properties": { "name": "Waters Edge Rehab & Nursing Center At Port Jefferson", "entity_id": 150564, "beds": 120.0, "address": "150 Dark Hollow Road", "city": "Port Jefferson", "zipcode": 11777 }, "geometry": { "type": "Point", "coordinates": [ -73.0715, 40.9348 ] } },
{ "type": "Feature", "properties": { "name": "Woodhaven Nursing Home", "entity_id": 150566, "beds": 143.0, "address": "1360 Route 112", "city": "Port Jefferson Station", "zipcode": 11776 }, "geometry": { "type": "Point", "coordinates": [ -73.0347, 40.916 ] } },
{ "type": "Feature", "properties": { "name": "Surge Rehabilitation And Nursing Llc", "entity_id": 150567, "beds": 149.0, "address": "49 Oakcrest Avenue", "city": "Middle Island", "zipcode": 11953 }, "geometry": { "type": "Point", "coordinates": [ -72.9679, 40.8919 ] } },
{ "type": "Feature", "properties": { "name": "Oasis Rehabilitation And Nursing, Llc", "entity_id": 150568, "beds": 100.0, "address": "6 Frowein Road", "city": "Center Moriches", "zipcode": 11934 }, "geometry": { "type": "Point", "coordinates": [ -72.7776, 40.8087 ] } },
{ "type": "Feature", "properties": { "name": "Quantum Rehabilitation And Nursing Llc", "entity_id": 150569, "beds": 120.0, "address": "63 Oakcrest Ave", "city": "Middle Island", "zipcode": 11953 }, "geometry": { "type": "Point", "coordinates": [ -72.9679, 40.8918 ] } },
{ "type": "Feature", "properties": { "name": "Hilaire Rehab & Nursing", "entity_id": 150570, "beds": 76.0, "address": "9 Hilaire Drive", "city": "Huntington", "zipcode": 11743 }, "geometry": { "type": "Point", "coordinates": [ -73.4108, 40.8678 ] } },
{ "type": "Feature", "properties": { "name": "Apex Rehabilitation & Care Center", "entity_id": 150571, "beds": 195.0, "address": "78 Birchwood Drive", "city": "Huntington Station", "zipcode": 11746 }, "geometry": { "type": "Point", "coordinates": [ -73.3936, 40.8272 ] } },
{ "type": "Feature", "properties": { "name": "Carillon Nursing And Rehabilitation Center", "entity_id": 150572, "beds": 315.0, "address": "830 Park Avenue", "city": "Huntington", "zipcode": 11743 }, "geometry": { "type": "Point", "coordinates": [ -73.3893, 40.8554 ] } },
{ "type": "Feature", "properties": { "name": "Sunrise Manor Center For Nursing And Rehabilitation", "entity_id": 150573, "beds": 84.0, "address": "1325 Brentwood Road", "city": "Bay Shore", "zipcode": 11706 }, "geometry": { "type": "Point", "coordinates": [ -73.2392, 40.7402 ] } },
{ "type": "Feature", "properties": { "name": "Ross Center For Nursing And Rehabilitation", "entity_id": 150574, "beds": 120.0, "address": "839 Suffolk Avenue", "city": "Brentwood", "zipcode": 11717 }, "geometry": { "type": "Point", "coordinates": [ -73.2411, 40.7824 ] } },
{ "type": "Feature", "properties": { "name": "Momentum At South Bay For Rehabilitation And Nursing", "entity_id": 150575, "beds": 160.0, "address": "340 East Montauk Highway", "city": "East Islip", "zipcode": 11730 }, "geometry": { "type": "Point", "coordinates": [ -73.1746, 40.7346 ] } },
{ "type": "Feature", "properties": { "name": "Our Lady Of Consolation Nursing And Rehabilitative Care Center", "entity_id": 150576, "beds": 345.0, "address": "111 Beach Drive", "city": "West Islip", "zipcode": 11795 }, "geometry": { "type": "Point", "coordinates": [ -73.2925, 40.6909 ] } },
{ "type": "Feature", "properties": { "name": "Acadia Center For Nursing And Rehabilitation", "entity_id": 150577, "beds": 181.0, "address": "1146 Woodcrest Avenue", "city": "Riverhead", "zipcode": 11901 }, "geometry": { "type": "Point", "coordinates": [ -72.6841, 40.9307 ] } },
{ "type": "Feature", "properties": { "name": "Brookside Multicare Nursing Center", "entity_id": 150578, "beds": 353.0, "address": "7 Route 25a", "city": "Smithtown", "zipcode": 11787 }, "geometry": { "type": "Point", "coordinates": [ -73.2134, 40.8596 ] } },
{ "type": "Feature", "properties": { "name": "St. James Rehabilitation & Healthcare Center", "entity_id": 150579, "beds": 230.0, "address": "275 Moriches Road", "city": "St James", "zipcode": 11780 }, "geometry": { "type": "Point", "coordinates": [ -73.1422, 40.8791 ] } },
{ "type": "Feature", "properties": { "name": "St Johnland Nursing Center, Inc", "entity_id": 150580, "beds": 250.0, "address": "395 Sunken Meadow Road", "city": "Kings Park", "zipcode": 11754 }, "geometry": { "type": "Point", "coordinates": [ -73.2406, 40.902 ] } },
{ "type": "Feature", "properties": { "name": "Luxor Nursing And Rehabilitation At Mills Pond", "entity_id": 150581, "beds": 250.0, "address": "273 Moriches Road", "city": "St James", "zipcode": 11780 }, "geometry": { "type": "Point", "coordinates": [ -73.1418, 40.879 ] } },
{ "type": "Feature", "properties": { "name": "Achieve Rehab And Nursing Facility", "entity_id": 150582, "beds": 140.0, "address": "170 Lake Street", "city": "Liberty", "zipcode": 12754 }, "geometry": { "type": "Point", "coordinates": [ -74.7514, 41.7949 ] } },
{ "type": "Feature", "properties": { "name": "Sullivan County Adult Care Center", "entity_id": 150583, "beds": 146.0, "address": "256 Sunset Lake Road, P.o. Box 671", "city": "Liberty", "zipcode": 12754 }, "geometry": { "type": "Point", "coordinates": [ -74.7061, 41.7973 ] } },
{ "type": "Feature", "properties": { "name": "Roscoe Rehabilitation And Nursing Center", "entity_id": 150584, "beds": 85.0, "address": "420 Rockland Road", "city": "Roscoe", "zipcode": 12776 }, "geometry": { "type": "Point", "coordinates": [ -74.9079, 41.9622 ] } },
{ "type": "Feature", "properties": { "name": "Elderwood At Waverly", "entity_id": 150585, "beds": 200.0, "address": "37 North Chemung Street", "city": "Waverly", "zipcode": 14892 }, "geometry": { "type": "Point", "coordinates": [ -76.5276, 42.0122 ] } },
{ "type": "Feature", "properties": { "name": "River View Rehabilitation And Nursing Care Center", "entity_id": 150586, "beds": 77.0, "address": "510 Fifth Avenue", "city": "Owego", "zipcode": 13827 }, "geometry": { "type": "Point", "coordinates": [ -76.2495, 42.1063 ] } },
{ "type": "Feature", "properties": { "name": "Oak Hill Rehabilitation And Nursing Care Center", "entity_id": 150587, "beds": 60.0, "address": "602 Hudson St", "city": "Ithaca", "zipcode": 14850 }, "geometry": { "type": "Point", "coordinates": [ -76.4919, 42.4322 ] } },
{ "type": "Feature", "properties": { "name": "Beechtree Center For Rehabilitation And Nursing", "entity_id": 150588, "beds": 120.0, "address": "318 South Albany Street", "city": "Ithaca", "zipcode": 14850 }, "geometry": { "type": "Point", "coordinates": [ -76.5016, 42.4363 ] } },
{ "type": "Feature", "properties": { "name": "Cayuga Nursing And Rehabilitation Center", "entity_id": 150589, "beds": 144.0, "address": "1229 Trumansburg Road", "city": "Ithaca", "zipcode": 14850 }, "geometry": { "type": "Point", "coordinates": [ -76.533, 42.4626 ] } },
{ "type": "Feature", "properties": { "name": "Golden Hill Nursing And Rehabilitation Center", "entity_id": 150590, "beds": 280.0, "address": "99 Golden Hill Drive", "city": "Kingston", "zipcode": 12401 }, "geometry": { "type": "Point", "coordinates": [ -74.0227, 41.9171 ] } },
{ "type": "Feature", "properties": { "name": "New Paltz Center For Rehabilitation And Nursing", "entity_id": 150591, "beds": 77.0, "address": "1 Jansen Road, P.o. Box 909", "city": "New Paltz", "zipcode": 12561 }, "geometry": { "type": "Point", "coordinates": [ -74.0992, 41.728 ] } },
{ "type": "Feature", "properties": { "name": "Hudson Valley Rehabilitation & Extended Care Center", "entity_id": 150592, "beds": 203.0, "address": "260 Vineyard Ave", "city": "Highland", "zipcode": 12528 }, "geometry": { "type": "Point", "coordinates": [ -73.9801, 41.7039 ] } },
{ "type": "Feature", "properties": { "name": "Warren Center For Rehabilitation And Nursing", "entity_id": 150593, "beds": 80.0, "address": "42 Gurney Lane", "city": "Queensbury", "zipcode": 12804 }, "geometry": { "type": "Point", "coordinates": [ -73.706, 43.3594 ] } },
{ "type": "Feature", "properties": { "name": "Glens Falls Center For Rehabilitation And Nursing", "entity_id": 150594, "beds": 117.0, "address": "152 Sherman Avenue", "city": "Glens Falls", "zipcode": 12801 }, "geometry": { "type": "Point", "coordinates": [ -73.6641, 43.3089 ] } },
{ "type": "Feature", "properties": { "name": "The Pines At Glens Falls Center For Nursing & Rehabilitation", "entity_id": 150595, "beds": 120.0, "address": "170 Warren Street", "city": "Glens Falls", "zipcode": 12801 }, "geometry": { "type": "Point", "coordinates": [ -73.6339, 43.3108 ] } },
{ "type": "Feature", "properties": { "name": "Elderwood At North Creek", "entity_id": 150596, "beds": 82.0, "address": "112 Ski Bowl Road", "city": "North Creek", "zipcode": 12853 }, "geometry": { "type": "Point", "coordinates": [ -73.9893, 43.6944 ] } },
{ "type": "Feature", "properties": { "name": "Fort Hudson Nursing Center, Inc.", "entity_id": 150597, "beds": 196.0, "address": "319 Upper Broadway", "city": "Fort Edward", "zipcode": 12828 }, "geometry": { "type": "Point", "coordinates": [ -73.5846, 43.267 ] } },
{ "type": "Feature", "properties": { "name": "Granville Center For Rehabilitation And Nursing", "entity_id": 150598, "beds": 122.0, "address": "17 Madison Street", "city": "Granville", "zipcode": 12832 }, "geometry": { "type": "Point", "coordinates": [ -73.271, 43.4045 ] } },
{ "type": "Feature", "properties": { "name": "Washington Center For Rehabilitation And Healthcare", "entity_id": 150599, "beds": 122.0, "address": "Route 40", "city": "Argyle", "zipcode": 12809 }, "geometry": { "type": "Point", "coordinates": [ -73.4867, 43.2037 ] } },
{ "type": "Feature", "properties": { "name": "Wayne Health Care", "entity_id": 150600, "beds": 180.0, "address": "100 Sunset Drive", "city": "Newark", "zipcode": 14513 }, "geometry": { "type": "Point", "coordinates": [ -77.1097, 43.0623 ] } },
{ "type": "Feature", "properties": { "name": "Newark Manor Nursing Home Inc", "entity_id": 150601, "beds": 60.0, "address": "222 West Pearl Street", "city": "Newark", "zipcode": 14513 }, "geometry": { "type": "Point", "coordinates": [ -77.1001, 43.0623 ] } },
{ "type": "Feature", "properties": { "name": "Gowanda Rehabilitation & Nursing Center", "entity_id": 150602, "beds": 160.0, "address": "100 Miller Street", "city": "Gowanda", "zipcode": 14070 }, "geometry": { "type": "Point", "coordinates": [ -78.9259, 42.4556 ] } },
{ "type": "Feature", "properties": { "name": "Wayne County Nursing Home", "entity_id": 150603, "beds": 192.0, "address": "1529 Nye Road", "city": "Lyons", "zipcode": 14489 }, "geometry": { "type": "Point", "coordinates": [ -77.0288, 43.0642 ] } },
{ "type": "Feature", "properties": { "name": "Sodus Rehabilitation & Nursing Center", "entity_id": 150604, "beds": 124.0, "address": "6884 Maple Ave", "city": "Sodus", "zipcode": 14551 }, "geometry": { "type": "Point", "coordinates": [ -77.0625, 43.2487 ] } },
{ "type": "Feature", "properties": { "name": "Cortlandt Healthcare", "entity_id": 150605, "beds": 120.0, "address": "110 Oregon Road", "city": "Peekskill", "zipcode": 10566 }, "geometry": { "type": "Point", "coordinates": [ -73.9053, 41.3127 ] } },
{ "type": "Feature", "properties": { "name": "The Emerald Peek Rehabilitation And Nursing Center", "entity_id": 150606, "beds": 96.0, "address": "2000 E Main Street", "city": "Peekskill", "zipcode": 10566 }, "geometry": { "type": "Point", "coordinates": [ -73.8913, 41.2966 ] } },
{ "type": "Feature", "properties": { "name": "White Plains Center For Nursing Care", "entity_id": 150609, "beds": 87.0, "address": "220 West Post Road", "city": "White Plains", "zipcode": 10606 }, "geometry": { "type": "Point", "coordinates": [ -73.7765, 41.0194 ] } },
{ "type": "Feature", "properties": { "name": "Martine Center For Rehabilitation And Nursing", "entity_id": 150610, "beds": 200.0, "address": "12 Tibbits Avenue", "city": "White Plains", "zipcode": 10606 }, "geometry": { "type": "Point", "coordinates": [ -73.7761, 41.0236 ] } },
{ "type": "Feature", "properties": { "name": "The Wartburg Home", "entity_id": 150611, "beds": 210.0, "address": "Bradley Avenue", "city": "Mount Vernon", "zipcode": 10552 }, "geometry": { "type": "Point", "coordinates": [ -73.8139, 40.9197 ] } },
{ "type": "Feature", "properties": { "name": "Westchester Center For Rehabilitation & Nursing", "entity_id": 150612, "beds": 240.0, "address": "10 Claremont Ave", "city": "Mount Vernon", "zipcode": 10550 }, "geometry": { "type": "Point", "coordinates": [ -73.8263, 40.9124 ] } },
{ "type": "Feature", "properties": { "name": "Bayberry Nursing Home", "entity_id": 150613, "beds": 60.0, "address": "40 Keogh Lane", "city": "New Rochelle", "zipcode": 10805 }, "geometry": { "type": "Point", "coordinates": [ -73.7842, 40.8922 ] } },
{ "type": "Feature", "properties": { "name": "United Hebrew Geriatric Center", "entity_id": 150614, "beds": 294.0, "address": "391 Pelham Road", "city": "New Rochelle", "zipcode": 10805 }, "geometry": { "type": "Point", "coordinates": [ -73.7785, 40.8969 ] } },
{ "type": "Feature", "properties": { "name": "Glen Island Center For Nursing And Rehabilitation", "entity_id": 150615, "beds": 182.0, "address": "490 Pelham Road", "city": "New Rochelle", "zipcode": 10805 }, "geometry": { "type": "Point", "coordinates": [ -73.7815, 40.8952 ] } },
{ "type": "Feature", "properties": { "name": "Sutton Park Center For Nursing And Rehabilitation", "entity_id": 150616, "beds": 160.0, "address": "31 Lockwood Avenue", "city": "New Rochelle", "zipcode": 10801 }, "geometry": { "type": "Point", "coordinates": [ -73.7862, 40.9143 ] } },
{ "type": "Feature", "properties": { "name": "Schaffer Extended Care Center", "entity_id": 150617, "beds": 150.0, "address": "16 Guion Place", "city": "New Rochelle", "zipcode": 10802 }, "geometry": { "type": "Point", "coordinates": [ -73.7871, 40.913 ] } },
{ "type": "Feature", "properties": { "name": "Cedar Manor Nursing & Rehabilitation Center", "entity_id": 150618, "beds": 153.0, "address": "Cedar Lane, P.o. Box 928", "city": "Ossining", "zipcode": 10562 }, "geometry": { "type": "Point", "coordinates": [ -73.8669, 41.1763 ] } },
{ "type": "Feature", "properties": { "name": "Bethel Nursing Home Company Inc", "entity_id": 150619, "beds": 43.0, "address": "17 Narragansett Avenue", "city": "Ossining", "zipcode": 10562 }, "geometry": { "type": "Point", "coordinates": [ -73.8433, 41.1732 ] } },
{ "type": "Feature", "properties": { "name": "King Street Home Inc", "entity_id": 150621, "beds": 120.0, "address": "787 King Street", "city": "Port Chester", "zipcode": 10573 }, "geometry": { "type": "Point", "coordinates": [ -73.6706, 41.0267 ] } },
{ "type": "Feature", "properties": { "name": "The Enclave At Rye Rehabilitation And Nursing Center", "entity_id": 150622, "beds": 160.0, "address": "1000 High St", "city": "Port Chester", "zipcode": 10573 }, "geometry": { "type": "Point", "coordinates": [ -73.6774, 40.9936 ] } },
{ "type": "Feature", "properties": { "name": "Regency Extended Care Center", "entity_id": 150623, "beds": 315.0, "address": "65 Ashburton Avenue", "city": "Yonkers", "zipcode": 10701 }, "geometry": { "type": "Point", "coordinates": [ -73.8948, 40.9395 ] } },
{ "type": "Feature", "properties": { "name": "Sans Souci Rehabilitation And Nursing Center", "entity_id": 150624, "beds": 120.0, "address": "115 Park Avenue", "city": "Yonkers", "zipcode": 10703 }, "geometry": { "type": "Point", "coordinates": [ -73.8912, 40.9442 ] } },
{ "type": "Feature", "properties": { "name": "Yonkers Gardens Center For Nursing And Rehabilitation", "entity_id": 150625, "beds": 200.0, "address": "115 South Broadway", "city": "Yonkers", "zipcode": 10701 }, "geometry": { "type": "Point", "coordinates": [ -73.9, 40.9298 ] } },
{ "type": "Feature", "properties": { "name": "The New Jewish Home, Sarah Neuman", "entity_id": 150626, "beds": 300.0, "address": "845 Palmer Avenue", "city": "Mamaroneck", "zipcode": 10543 }, "geometry": { "type": "Point", "coordinates": [ -73.7452, 40.944 ] } },
{ "type": "Feature", "properties": { "name": "Sprain Brook Manor Rehab", "entity_id": 150627, "beds": 121.0, "address": "77 Jackson Ave", "city": "Scarsdale", "zipcode": 10583 }, "geometry": { "type": "Point", "coordinates": [ -73.8358, 40.9865 ] } },
{ "type": "Feature", "properties": { "name": "Tarrytown Hall Care Center", "entity_id": 150628, "beds": 120.0, "address": "20 Wood Court", "city": "Tarrytown", "zipcode": 10591 }, "geometry": { "type": "Point", "coordinates": [ -73.8613, 41.0806 ] } },
{ "type": "Feature", "properties": { "name": "Sky View Rehabilitation And Health Care Center, Llc", "entity_id": 150629, "beds": 192.0, "address": "1280 Albany Post Road", "city": "Croton On Hudson", "zipcode": 10520 }, "geometry": { "type": "Point", "coordinates": [ -73.9067, 41.2156 ] } },
{ "type": "Feature", "properties": { "name": "St Cabrini Nursing Home", "entity_id": 150630, "beds": 304.0, "address": "115 Broadway", "city": "Dobbs Ferry", "zipcode": 10522 }, "geometry": { "type": "Point", "coordinates": [ -73.8792, 41.0077 ] } },
{ "type": "Feature", "properties": { "name": "Andrus On Hudson", "entity_id": 150631, "beds": 197.0, "address": "185 Old Broadway", "city": "Hastings-On-hudson", "zipcode": 10706 }, "geometry": { "type": "Point", "coordinates": [ -73.8796, 40.9842 ] } },
{ "type": "Feature", "properties": { "name": "Briarcliff Manor Center For Rehabilitation And Nursing Care", "entity_id": 150632, "beds": 120.0, "address": "620 Sleepy Hollow Road", "city": "Briarcliff Manor", "zipcode": 10510 }, "geometry": { "type": "Point", "coordinates": [ -73.8356, 41.124 ] } },
{ "type": "Feature", "properties": { "name": "The Osborn", "entity_id": 150633, "beds": 84.0, "address": "101 Theall Road", "city": "Rye", "zipcode": 10580 }, "geometry": { "type": "Point", "coordinates": [ -73.7007, 40.9719 ] } },
{ "type": "Feature", "properties": { "name": "Rosary Hill Home", "entity_id": 150634, "beds": 54.0, "address": "600 Linda Ave", "city": "Hawthorne", "zipcode": 10532 }, "geometry": { "type": "Point", "coordinates": [ -73.7888, 41.1106 ] } },
{ "type": "Feature", "properties": { "name": "Waterview Hills Rehabilitation And Nursing Center", "entity_id": 150635, "beds": 130.0, "address": "537 Route 22, P.o. Box 257", "city": "Purdys", "zipcode": 10578 }, "geometry": { "type": "Point", "coordinates": [ -73.6568, 41.3289 ] } },
{ "type": "Feature", "properties": { "name": "Sunshine Children's Home And Rehab Center", "entity_id": 150636, "beds": 54.0, "address": "15 Spring Valley Road", "city": "Ossining", "zipcode": 10562 }, "geometry": { "type": "Point", "coordinates": [ -73.8521, 41.192 ] } },
{ "type": "Feature", "properties": { "name": "The Paramount At Somers Rehabilitation And Nursing Center", "entity_id": 150637, "beds": 300.0, "address": "Route 100", "city": "Somers", "zipcode": 10589 }, "geometry": { "type": "Point", "coordinates": [ -73.7001, 41.3015 ] } },
{ "type": "Feature", "properties": { "name": "North Westchester Restorative Therapy And Nursing Center", "entity_id": 150638, "beds": 120.0, "address": "3550 Lexington Avenue", "city": "Mohegan Lake", "zipcode": 10547 }, "geometry": { "type": "Point", "coordinates": [ -73.8597, 41.3212 ] } },
{ "type": "Feature", "properties": { "name": "Wyoming County Community Hospital Snf", "entity_id": 150639, "beds": 138.0, "address": "400 North Main Street", "city": "Warsaw", "zipcode": 14569 }, "geometry": { "type": "Point", "coordinates": [ -78.1325, 42.7535 ] } },
{ "type": "Feature", "properties": { "name": "East Side Nursing Home", "entity_id": 150640, "beds": 80.0, "address": "62 Prospect St", "city": "Warsaw", "zipcode": 14569 }, "geometry": { "type": "Point", "coordinates": [ -78.1287, 42.739 ] } },
{ "type": "Feature", "properties": { "name": "Soldiers And Sailors Memorial Hospital Extended Care Unit", "entity_id": 150641, "beds": 150.0, "address": "418 North Main Street", "city": "Penn Yan", "zipcode": 14527 }, "geometry": { "type": "Point", "coordinates": [ -77.0598, 42.6707 ] } },
{ "type": "Feature", "properties": { "name": "Penn Yan Manor Nursing Home Inc", "entity_id": 150642, "beds": 46.0, "address": "655 N Liberty Street", "city": "Penn Yan", "zipcode": 14527 }, "geometry": { "type": "Point", "coordinates": [ -77.0628, 42.6714 ] } },
{ "type": "Feature", "properties": { "name": "Hebrew Home For The Aged At Riverdale", "entity_id": 150643, "beds": 843.0, "address": "5901 Palisade Avenue", "city": "Bronx", "zipcode": 10471 }, "geometry": { "type": "Point", "coordinates": [ -73.9083, 40.9092 ] } },
{ "type": "Feature", "properties": { "name": "Providence Rest, Inc.", "entity_id": 150644, "beds": 200.0, "address": "3304 Waterbury Avenue", "city": "Bronx", "zipcode": 10465 }, "geometry": { "type": "Point", "coordinates": [ -73.8175, 40.8375 ] } },
{ "type": "Feature", "properties": { "name": "St Patricks Home", "entity_id": 150645, "beds": 264.0, "address": "66 Van Cortlandt Park South", "city": "Bronx", "zipcode": 10463 }, "geometry": { "type": "Point", "coordinates": [ -73.8885, 40.8844 ] } },
{ "type": "Feature", "properties": { "name": "Beth Abraham Center For Rehabilitation And Nursing", "entity_id": 150646, "beds": 448.0, "address": "612 Allerton Avenue", "city": "Bronx", "zipcode": 10467 }, "geometry": { "type": "Point", "coordinates": [ -73.87, 40.8653 ] } },
{ "type": "Feature", "properties": { "name": "Workmen's Circle Multicare Center", "entity_id": 150647, "beds": 524.0, "address": "3155 Grace Avenue", "city": "Bronx", "zipcode": 10469 }, "geometry": { "type": "Point", "coordinates": [ -73.8372, 40.8744 ] } },
{ "type": "Feature", "properties": { "name": "Methodist Home For Nursing And Rehabilitation", "entity_id": 150648, "beds": 120.0, "address": "4499 Manhattan College Parkway", "city": "Bronx", "zipcode": 10471 }, "geometry": { "type": "Point", "coordinates": [ -73.903, 40.8895 ] } },
{ "type": "Feature", "properties": { "name": "Jeanne Jugan Residence", "entity_id": 150649, "beds": 30.0, "address": "2999 Schurz Avenue", "city": "Bronx", "zipcode": 10465 }, "geometry": { "type": "Point", "coordinates": [ -73.8119, 40.8151 ] } },
{ "type": "Feature", "properties": { "name": "Rebekah Rehab And Extended Care Center", "entity_id": 150650, "beds": 213.0, "address": "1072 Havemeyer Avenue", "city": "Bronx", "zipcode": 10462 }, "geometry": { "type": "Point", "coordinates": [ -73.8474, 40.8303 ] } },
{ "type": "Feature", "properties": { "name": "Schervier Nursing Care Center", "entity_id": 150651, "beds": 364.0, "address": "2975 Independence Ave", "city": "Bronx", "zipcode": 10463 }, "geometry": { "type": "Point", "coordinates": [ -73.9173, 40.8831 ] } },
{ "type": "Feature", "properties": { "name": "The Plaza Rehab And Nursing Center", "entity_id": 150652, "beds": 744.0, "address": "100 West Kingsbridge Road", "city": "Bronx", "zipcode": 10468 }, "geometry": { "type": "Point", "coordinates": [ -73.9016, 40.8684 ] } },
{ "type": "Feature", "properties": { "name": "Gold Crest Care Center", "entity_id": 150653, "beds": 175.0, "address": "2316 Bruner Avenue", "city": "Bronx", "zipcode": 10469 }, "geometry": { "type": "Point", "coordinates": [ -73.8334, 40.8591 ] } },
{ "type": "Feature", "properties": { "name": "Bainbridge Nursing & Rehabilitation Center", "entity_id": 150654, "beds": 200.0, "address": "3518 Bainbridge Avenue", "city": "Bronx", "zipcode": 10467 }, "geometry": { "type": "Point", "coordinates": [ -73.8782, 40.8816 ] } },
{ "type": "Feature", "properties": { "name": "Eastchester Rehabilitation And Health Care Center", "entity_id": 150655, "beds": 200.0, "address": "2700 Eastchester Road", "city": "Bronx", "zipcode": 10469 }, "geometry": { "type": "Point", "coordinates": [ -73.8433, 40.8659 ] } },
{ "type": "Feature", "properties": { "name": "Hudson Pointe At Riverdale Center For Nursing And Rehabilitation", "entity_id": 150656, "beds": 159.0, "address": "3220 Henry Hudson Parkway", "city": "Bronx", "zipcode": 10463 }, "geometry": { "type": "Point", "coordinates": [ -73.9138, 40.885 ] } },
{ "type": "Feature", "properties": { "name": "Fieldston Lodge Care Center", "entity_id": 150657, "beds": 200.0, "address": "666 Kappock Street", "city": "Bronx", "zipcode": 10463 }, "geometry": { "type": "Point", "coordinates": [ -73.9188, 40.8805 ] } },
{ "type": "Feature", "properties": { "name": "The Citadel Rehab And Nursing Center At Kingsbridge", "entity_id": 150658, "beds": 385.0, "address": "3400 Cannon Place", "city": "Bronx", "zipcode": 10463 }, "geometry": { "type": "Point", "coordinates": [ -73.8979, 40.88 ] } },
{ "type": "Feature", "properties": { "name": "Morris Park Rehabilitation And Nursing Center", "entity_id": 150659, "beds": 191.0, "address": "1235 Pelham Parkway North", "city": "Bronx", "zipcode": 10469 }, "geometry": { "type": "Point", "coordinates": [ -73.8518, 40.8586 ] } },
{ "type": "Feature", "properties": { "name": "Mosholu Parkway Nursing & Rehabilitation Center", "entity_id": 150660, "beds": 122.0, "address": "3356 Perry Avenue", "city": "Bronx", "zipcode": 10467 }, "geometry": { "type": "Point", "coordinates": [ -73.8745, 40.8785 ] } },
{ "type": "Feature", "properties": { "name": "Park Gardens Rehabilitation & Nursing Center Llc", "entity_id": 150661, "beds": 200.0, "address": "6585 Broadway", "city": "Riverdale", "zipcode": 10471 }, "geometry": { "type": "Point", "coordinates": [ -73.8966, 40.9079 ] } },
{ "type": "Feature", "properties": { "name": "Riverdale Nursing Home", "entity_id": 150662, "beds": 146.0, "address": "641 West 230th St", "city": "Bronx", "zipcode": 10463 }, "geometry": { "type": "Point", "coordinates": [ -73.915, 40.8822 ] } },
{ "type": "Feature", "properties": { "name": "Regeis Care Center", "entity_id": 150663, "beds": 236.0, "address": "3200 Baychester Ave", "city": "Bronx", "zipcode": 10475 }, "geometry": { "type": "Point", "coordinates": [ -73.8361, 40.8769 ] } },
{ "type": "Feature", "properties": { "name": "Split Rock Rehabilitation And Health Care Center", "entity_id": 150664, "beds": 240.0, "address": "3525 Baychester Ave", "city": "Bronx", "zipcode": 10466 }, "geometry": { "type": "Point", "coordinates": [ -73.839, 40.8817 ] } },
{ "type": "Feature", "properties": { "name": "University Center For Rehabilitation And Nursing", "entity_id": 150665, "beds": 46.0, "address": "2505 Grand Ave", "city": "Bronx", "zipcode": 10468 }, "geometry": { "type": "Point", "coordinates": [ -73.9019, 40.8648 ] } },
{ "type": "Feature", "properties": { "name": "Pelham Parkway Nursing Care And Rehabilitation Facility Llc", "entity_id": 150666, "beds": 200.0, "address": "2401 Laconia Ave", "city": "Bronx", "zipcode": 10469 }, "geometry": { "type": "Point", "coordinates": [ -73.856, 40.8612 ] } },
{ "type": "Feature", "properties": { "name": "Bronx Park Rehabilitation & Nursing Center", "entity_id": 150667, "beds": 240.0, "address": "3845 Carpenter Ave", "city": "Bronx", "zipcode": 10467 }, "geometry": { "type": "Point", "coordinates": [ -73.865, 40.8858 ] } },
{ "type": "Feature", "properties": { "name": "Williamsbridge Center For Rehabilitation And Nursing", "entity_id": 150668, "beds": 77.0, "address": "1540 Tomlinson Avenue", "city": "Bronx", "zipcode": 10461 }, "geometry": { "type": "Point", "coordinates": [ -73.849, 40.8459 ] } },
{ "type": "Feature", "properties": { "name": "Laconia Nursing Home", "entity_id": 150669, "beds": 240.0, "address": "1050 East 230th Street", "city": "Bronx", "zipcode": 10466 }, "geometry": { "type": "Point", "coordinates": [ -73.8485, 40.8881 ] } },
{ "type": "Feature", "properties": { "name": "Triboro Center For Rehabilitation And Nursing", "entity_id": 150670, "beds": 405.0, "address": "1160 Teller Ave", "city": "Bronx", "zipcode": 10456 }, "geometry": { "type": "Point", "coordinates": [ -73.912, 40.8314 ] } },
{ "type": "Feature", "properties": { "name": "Kings Harbor Multicare Center", "entity_id": 150671, "beds": 720.0, "address": "2000 E Gunhill Road", "city": "Bronx", "zipcode": 10469 }, "geometry": { "type": "Point", "coordinates": [ -73.8297, 40.8599 ] } },
{ "type": "Feature", "properties": { "name": "Bronx Center For Rehabilitation & Health Care", "entity_id": 150672, "beds": 200.0, "address": "1010 Underhill Ave", "city": "Bronx", "zipcode": 10472 }, "geometry": { "type": "Point", "coordinates": [ -73.8612, 40.8265 ] } },
{ "type": "Feature", "properties": { "name": "Morningside Nursing And Rehabilitation Center", "entity_id": 150673, "beds": 314.0, "address": "1000 Pelham Parkway South", "city": "Bronx", "zipcode": 10461 }, "geometry": { "type": "Point", "coordinates": [ -73.859, 40.8568 ] } },
{ "type": "Feature", "properties": { "name": "Concourse Rehabilitation And Nursing Center, Inc", "entity_id": 150674, "beds": 240.0, "address": "1072 Grand Concourse", "city": "Bronx", "zipcode": 10456 }, "geometry": { "type": "Point", "coordinates": [ -73.9199, 40.8315 ] } },
{ "type": "Feature", "properties": { "name": "Bethany Nursing Home & Health Related Facility Inc", "entity_id": 150676, "beds": 120.0, "address": "3005 Watkins Road", "city": "Horseheads", "zipcode": 14845 }, "geometry": { "type": "Point", "coordinates": [ -76.8327, 42.1835 ] } },
{ "type": "Feature", "properties": { "name": "Wayne Center For Nursing & Rehabilitation", "entity_id": 150677, "beds": 243.0, "address": "3530 Wayne Avenue", "city": "Bronx", "zipcode": 10467 }, "geometry": { "type": "Point", "coordinates": [ -73.8774, 40.8812 ] } },
{ "type": "Feature", "properties": { "name": "Fordham Nursing And Rehabilitation Center", "entity_id": 150678, "beds": 240.0, "address": "2678 Kingsbridge Terrace", "city": "Bronx", "zipcode": 10463 }, "geometry": { "type": "Point", "coordinates": [ -73.9049, 40.8703 ] } },
{ "type": "Feature", "properties": { "name": "Pinnacle Multicare Nursing And Rehabilitation Center", "entity_id": 150679, "beds": 480.0, "address": "801 Co-Op City Boulevard", "city": "Bronx", "zipcode": 10475 }, "geometry": { "type": "Point", "coordinates": [ -73.8269, 40.879 ] } },
{ "type": "Feature", "properties": { "name": "East Haven Nursing & Rehabilitation Center", "entity_id": 150680, "beds": 200.0, "address": "2323-27 Eastchester Road", "city": "Bronx", "zipcode": 10469 }, "geometry": { "type": "Point", "coordinates": [ -73.8431, 40.8599 ] } },
{ "type": "Feature", "properties": { "name": "Rutland Nursing Home, Inc.", "entity_id": 150681, "beds": 466.0, "address": "585 Schenectady Avenue", "city": "Brooklyn", "zipcode": 11203 }, "geometry": { "type": "Point", "coordinates": [ -73.934, 40.6594 ] } },
{ "type": "Feature", "properties": { "name": "Haym Solomon Home For The Aged", "entity_id": 150682, "beds": 240.0, "address": "2340 Cropsey Avenue", "city": "Brooklyn", "zipcode": 11214 }, "geometry": { "type": "Point", "coordinates": [ -73.996, 40.5949 ] } },
{ "type": "Feature", "properties": { "name": "King David Center For Nursing And Rehabilitation", "entity_id": 150683, "beds": 271.0, "address": "2266 Cropsey Avenue", "city": "Brooklyn", "zipcode": 11214 }, "geometry": { "type": "Point", "coordinates": [ -73.9974, 40.596 ] } },
{ "type": "Feature", "properties": { "name": "Brooklyn United Methodist Church Home", "entity_id": 150686, "beds": 120.0, "address": "1485 Dumont Avenue", "city": "Brooklyn", "zipcode": 11208 }, "geometry": { "type": "Point", "coordinates": [ -73.8625, 40.671 ] } },
{ "type": "Feature", "properties": { "name": "Ny Congregational Nursing Center, Inc", "entity_id": 150687, "beds": 200.0, "address": "135 Linden Boulevard", "city": "Brooklyn", "zipcode": 11226 }, "geometry": { "type": "Point", "coordinates": [ -73.9538, 40.6525 ] } },
{ "type": "Feature", "properties": { "name": "The Riverside", "entity_id": 150688, "beds": 520.0, "address": "150 Riverside Drive", "city": "New York", "zipcode": 10024 }, "geometry": { "type": "Point", "coordinates": [ -73.9798, 40.7906 ] } },
{ "type": "Feature", "properties": { "name": "Seagate Rehabilitation And Nursing Center", "entity_id": 150691, "beds": 360.0, "address": "3015 W 29 St", "city": "Brooklyn", "zipcode": 11224 }, "geometry": { "type": "Point", "coordinates": [ -73.9949, 40.5734 ] } },
{ "type": "Feature", "properties": { "name": "Norwegian Christian Home And Health Center", "entity_id": 150692, "beds": 135.0, "address": "1270-67th Street", "city": "Brooklyn", "zipcode": 11219 }, "geometry": { "type": "Point", "coordinates": [ -74.0033, 40.6251 ] } },
{ "type": "Feature", "properties": { "name": "Schulman And Schachne Institute For Nursing And Rehabilitation", "entity_id": 150693, "beds": 448.0, "address": "555 Rockaway Parkway", "city": "Brooklyn", "zipcode": 11212 }, "geometry": { "type": "Point", "coordinates": [ -73.9133, 40.655 ] } },
{ "type": "Feature", "properties": { "name": "Williamsville Suburban Llc", "entity_id": 150694, "beds": 220.0, "address": "163 South Union Road", "city": "Williamsville", "zipcode": 14221 }, "geometry": { "type": "Point", "coordinates": [ -78.7549, 42.9564 ] } },
{ "type": "Feature", "properties": { "name": "New Carlton Rehab And Nursing Center, Llc", "entity_id": 150695, "beds": 148.0, "address": "405 Carlton Ave", "city": "Brooklyn", "zipcode": 11238 }, "geometry": { "type": "Point", "coordinates": [ -73.9712, 40.6854 ] } },
{ "type": "Feature", "properties": { "name": "Caton Park Rehabilitation And Nursing Center, Llc", "entity_id": 150696, "beds": 119.0, "address": "1312 Caton Avenue", "city": "Brooklyn", "zipcode": 11226 }, "geometry": { "type": "Point", "coordinates": [ -73.9677, 40.6496 ] } },
{ "type": "Feature", "properties": { "name": "Cobble Hill Health Center, Inc", "entity_id": 150697, "beds": 364.0, "address": "380 Henry Street", "city": "Brooklyn", "zipcode": 11201 }, "geometry": { "type": "Point", "coordinates": [ -73.9975, 40.6883 ] } },
{ "type": "Feature", "properties": { "name": "The Chateau At Brooklyn Rehabilitation And Nursing Center", "entity_id": 150698, "beds": 189.0, "address": "3457 Nostrand Avenue", "city": "Brooklyn", "zipcode": 11229 }, "geometry": { "type": "Point", "coordinates": [ -73.9417, 40.5996 ] } },
{ "type": "Feature", "properties": { "name": "Oxford Nursing Home", "entity_id": 150699, "beds": 235.0, "address": "144 So Oxford St", "city": "Brooklyn", "zipcode": 11217 }, "geometry": { "type": "Point", "coordinates": [ -73.9732, 40.685 ] } },
{ "type": "Feature", "properties": { "name": "Palm Gardens Center For Nursing And Rehabilitation", "entity_id": 150700, "beds": 240.0, "address": "615 Avenue C", "city": "Brooklyn", "zipcode": 11218 }, "geometry": { "type": "Point", "coordinates": [ -73.9728, 40.6411 ] } },
{ "type": "Feature", "properties": { "name": "The Heritage Rehabilitation And Health Care Center", "entity_id": 150701, "beds": 79.0, "address": "5606 15th Ave", "city": "Brooklyn", "zipcode": 11219 }, "geometry": { "type": "Point", "coordinates": [ -73.9919, 40.6284 ] } },
{ "type": "Feature", "properties": { "name": "Brooklyn Center For Rehabilitation And Residential Health Care", "entity_id": 150702, "beds": 281.0, "address": "170 Buffalo Avenue", "city": "Brooklyn", "zipcode": 11213 }, "geometry": { "type": "Point", "coordinates": [ -73.9645, 40.6221 ] } },
{ "type": "Feature", "properties": { "name": "Sheepshead Nursing & Rehabilitation Center", "entity_id": 150703, "beds": 200.0, "address": "2840 Knapp St", "city": "Brooklyn", "zipcode": 11235 }, "geometry": { "type": "Point", "coordinates": [ -73.9314, 40.5854 ] } },
{ "type": "Feature", "properties": { "name": "Shore View Nursing & Rehabilitation Center", "entity_id": 150704, "beds": 320.0, "address": "2865 Brighton 3rd Street", "city": "Brooklyn", "zipcode": 11235 }, "geometry": { "type": "Point", "coordinates": [ -73.9657, 40.5814 ] } },
{ "type": "Feature", "properties": { "name": "Spring Creek Rehabilitation & Nursing Care Center", "entity_id": 150705, "beds": 188.0, "address": "660 Louisiana Avenue", "city": "Brooklyn", "zipcode": 11239 }, "geometry": { "type": "Point", "coordinates": [ -73.8834, 40.6453 ] } },
{ "type": "Feature", "properties": { "name": "Sea Crest Nursing And Rehabilitation Center", "entity_id": 150706, "beds": 305.0, "address": "3035 West 24th St", "city": "Brooklyn", "zipcode": 11224 }, "geometry": { "type": "Point", "coordinates": [ -73.9904, 40.5722 ] } },
{ "type": "Feature", "properties": { "name": "Boro Park Center For Rehabilitation And Healthcare", "entity_id": 150707, "beds": 504.0, "address": "4915 10th Ave", "city": "Brooklyn", "zipcode": 11219 }, "geometry": { "type": "Point", "coordinates": [ -73.9987, 40.6389 ] } },
{ "type": "Feature", "properties": { "name": "Concord Nursing And Rehabilitation Center", "entity_id": 150708, "beds": 140.0, "address": "300 Madison Street", "city": "Brooklyn", "zipcode": 11216 }, "geometry": { "type": "Point", "coordinates": [ -73.9463, 40.6852 ] } },
{ "type": "Feature", "properties": { "name": "The Phoenix Rehabilitation And Nursing Center", "entity_id": 150709, "beds": 400.0, "address": "140 St Edwards Street", "city": "Brooklyn", "zipcode": 11201 }, "geometry": { "type": "Point", "coordinates": [ -73.978, 40.695 ] } },
{ "type": "Feature", "properties": { "name": "Bensonhurst Center For Rehabilitation And Healthcare", "entity_id": 150710, "beds": 200.0, "address": "1740 84th Street", "city": "Brooklyn", "zipcode": 11214 }, "geometry": { "type": "Point", "coordinates": [ -74.0024, 40.6094 ] } },
{ "type": "Feature", "properties": { "name": "Crown Heights Center For Nursing And Rehabilitation", "entity_id": 150711, "beds": 295.0, "address": "810-20 St Marks Avenue", "city": "Brooklyn", "zipcode": 11213 }, "geometry": { "type": "Point", "coordinates": [ -73.9457, 40.6749 ] } },
{ "type": "Feature", "properties": { "name": "Downtown Brooklyn Nursing & Rehabilitation Center", "entity_id": 150712, "beds": 320.0, "address": "520 Prospect Place", "city": "Brooklyn", "zipcode": 11238 }, "geometry": { "type": "Point", "coordinates": [ -73.9592, 40.6756 ] } },
{ "type": "Feature", "properties": { "name": "Bedford Center For Nursing And Rehabilitation", "entity_id": 150713, "beds": 200.0, "address": "40 Heyward Street", "city": "Brooklyn", "zipcode": 11249 }, "geometry": { "type": "Point", "coordinates": [ -73.9582, 40.7003 ] } },
{ "type": "Feature", "properties": { "name": "Atrium Center For Rehabilitation And Nursing", "entity_id": 150714, "beds": 380.0, "address": "630 E 104th Street", "city": "Brooklyn", "zipcode": 11236 }, "geometry": { "type": "Point", "coordinates": [ -73.8981, 40.6494 ] } },
{ "type": "Feature", "properties": { "name": "Isabella Geriatric Center Inc", "entity_id": 150715, "beds": 705.0, "address": "515 Audubon Avenue", "city": "New York", "zipcode": 10040 }, "geometry": { "type": "Point", "coordinates": [ -73.9278, 40.8548 ] } },
{ "type": "Feature", "properties": { "name": "Mary Manning Walsh Nursing Home Co Inc", "entity_id": 150716, "beds": 362.0, "address": "1339 York Avenue", "city": "New York", "zipcode": 10021 }, "geometry": { "type": "Point", "coordinates": [ -73.9541, 40.7665 ] } },
{ "type": "Feature", "properties": { "name": "Ditmas Park Care Center", "entity_id": 150718, "beds": 200.0, "address": "2107 Ditmas Avenue", "city": "Brooklyn", "zipcode": 11226 }, "geometry": { "type": "Point", "coordinates": [ -73.9577, 40.64 ] } },
{ "type": "Feature", "properties": { "name": "New East Side Nursing Home", "entity_id": 150719, "beds": 58.0, "address": "25 Bialystoker Place", "city": "New York", "zipcode": 10002 }, "geometry": { "type": "Point", "coordinates": [ -73.9829, 40.716 ] } },
{ "type": "Feature", "properties": { "name": "Upper East Side Rehabilitation And Nursing Center", "entity_id": 150721, "beds": 499.0, "address": "211 East 79 St", "city": "New York", "zipcode": 10021 }, "geometry": { "type": "Point", "coordinates": [ -73.9568, 40.7741 ] } },
{ "type": "Feature", "properties": { "name": "North Gate Health Care Facility", "entity_id": 150722, "beds": 200.0, "address": "7264 Nash Road", "city": "North Tonawanda", "zipcode": 14120 }, "geometry": { "type": "Point", "coordinates": [ -78.866, 43.0745 ] } },
{ "type": "Feature", "properties": { "name": "Fort Tryon Center For Rehabilitation And Nursing", "entity_id": 150723, "beds": 205.0, "address": "801 W 190th St", "city": "New York", "zipcode": 10040 }, "geometry": { "type": "Point", "coordinates": [ -73.9349, 40.857 ] } },
{ "type": "Feature", "properties": { "name": "Villagecare Rehabilitation And Nursing Center", "entity_id": 150724, "beds": 105.0, "address": "214 West Houston Street", "city": "New York", "zipcode": 10014 }, "geometry": { "type": "Point", "coordinates": [ -74.0045, 40.7286 ] } },
{ "type": "Feature", "properties": { "name": "The New Jewish Home, Manhattan", "entity_id": 150725, "beds": 514.0, "address": "120 West 106th Street", "city": "New York", "zipcode": 10025 }, "geometry": { "type": "Point", "coordinates": [ -73.9638, 40.7996 ] } },
{ "type": "Feature", "properties": { "name": "Harlem Center For Nursing And Rehabilitation", "entity_id": 150726, "beds": 200.0, "address": "30 West 138th Street", "city": "New York", "zipcode": 10037 }, "geometry": { "type": "Point", "coordinates": [ -73.9372, 40.815 ] } },
{ "type": "Feature", "properties": { "name": "Amsterdam Nursing Home Corp (1992)", "entity_id": 150727, "beds": 409.0, "address": "1060 Amsterdam Avenue", "city": "New York", "zipcode": 10025 }, "geometry": { "type": "Point", "coordinates": [ -73.9628, 40.8045 ] } },
{ "type": "Feature", "properties": { "name": "New Gouverneur Hospital Snf", "entity_id": 150728, "beds": 295.0, "address": "227 Madison Street", "city": "New York", "zipcode": 10002 }, "geometry": { "type": "Point", "coordinates": [ -73.9877, 40.7129 ] } },
{ "type": "Feature", "properties": { "name": "Absolut Center For Nursing And Rehabilitation At Three Rivers, Llc", "entity_id": 150729, "beds": 120.0, "address": "101 Creekside Drive", "city": "Painted Post", "zipcode": 14870 }, "geometry": { "type": "Point", "coordinates": [ -77.1215, 42.1448 ] } },
{ "type": "Feature", "properties": { "name": "St. Mary's Hospital For Children", "entity_id": 150730, "beds": 124.0, "address": "29-01 216th Street", "city": "Bayside", "zipcode": 11360 }, "geometry": { "type": "Point", "coordinates": [ -73.77, 40.7762 ] } },
{ "type": "Feature", "properties": { "name": "Rockaway Care Center", "entity_id": 150731, "beds": 228.0, "address": "353 Beach 48th Street", "city": "Edgemere", "zipcode": 11691 }, "geometry": { "type": "Point", "coordinates": [ -73.7791, 40.5949 ] } },
{ "type": "Feature", "properties": { "name": "Queen Of Peace Residence", "entity_id": 150732, "beds": 53.0, "address": "110-30 221st St", "city": "Queens Village", "zipcode": 11429 }, "geometry": { "type": "Point", "coordinates": [ -73.736, 40.7058 ] } },
{ "type": "Feature", "properties": { "name": "Margaret Tietz Nursing And Rehabilitation Center", "entity_id": 150733, "beds": 200.0, "address": "164-11 Chapin Parkway", "city": "Jamaica", "zipcode": 11432 }, "geometry": { "type": "Point", "coordinates": [ -73.8016, 40.7141 ] } },
{ "type": "Feature", "properties": { "name": "Ozanam Hall Of Queens Nursing Home Inc", "entity_id": 150734, "beds": 432.0, "address": "42-41 201st Street", "city": "Bayside", "zipcode": 11361 }, "geometry": { "type": "Point", "coordinates": [ -73.7826, 40.7587 ] } },
{ "type": "Feature", "properties": { "name": "Parker Jewish Institute For Health Care & Rehab", "entity_id": 150735, "beds": 527.0, "address": "271-11 76th Avenue", "city": "New Hyde Park", "zipcode": 11040 }, "geometry": { "type": "Point", "coordinates": [ -73.7062, 40.754 ] } },
{ "type": "Feature", "properties": { "name": "Peninsula Nursing And Rehabilitation Center", "entity_id": 150736, "beds": 200.0, "address": "50-15 Beach Channel Drive", "city": "Far Rockaway", "zipcode": 11691 }, "geometry": { "type": "Point", "coordinates": [ -73.7811, 40.5953 ] } },
{ "type": "Feature", "properties": { "name": "Bridge View Nursing Home", "entity_id": 150737, "beds": 200.0, "address": "143-10 20th Ave", "city": "Whitestone", "zipcode": 11357 }, "geometry": { "type": "Point", "coordinates": [ -73.8244, 40.7816 ] } },
{ "type": "Feature", "properties": { "name": "The Grand Rehabilitation And Nursing At Queens", "entity_id": 150738, "beds": 179.0, "address": "157-15 19th Avenue", "city": "Whitestone", "zipcode": 11357 }, "geometry": { "type": "Point", "coordinates": [ -73.8047, 40.7813 ] } },
{ "type": "Feature", "properties": { "name": "Cliffside Rehabilitation & Residential Health Care Center", "entity_id": 150739, "beds": 218.0, "address": "119-19 Graham Court", "city": "Flushing", "zipcode": 11354 }, "geometry": { "type": "Point", "coordinates": [ -73.8476, 40.7752 ] } },
{ "type": "Feature", "properties": { "name": "Waterview Nursing Care Center", "entity_id": 150740, "beds": 200.0, "address": "119-15 27th Avenue", "city": "Flushing", "zipcode": 11354 }, "geometry": { "type": "Point", "coordinates": [ -73.8473, 40.7739 ] } },
{ "type": "Feature", "properties": { "name": "Fairview Nursing Care Center Inc", "entity_id": 150741, "beds": 200.0, "address": "69-70 Grand Central Parkway", "city": "Forest Hills", "zipcode": 11375 }, "geometry": { "type": "Point", "coordinates": [ -73.8381, 40.7248 ] } },
{ "type": "Feature", "properties": { "name": "Far Rockaway Center For Rehabilitation And Nursing", "entity_id": 150742, "beds": 100.0, "address": "13-11 Virgina St", "city": "Far Rockaway", "zipcode": 11691 }, "geometry": { "type": "Point", "coordinates": [ -73.7454, 40.6102 ] } },
{ "type": "Feature", "properties": { "name": "Sapphire Center For Rehabilitation And Nursing Of Central Queens, Llc", "entity_id": 150743, "beds": 227.0, "address": "35-15 Parsons Blvd", "city": "Flushing", "zipcode": 11354 }, "geometry": { "type": "Point", "coordinates": [ -73.8236, 40.7656 ] } },
{ "type": "Feature", "properties": { "name": "Forest Hills Care Center", "entity_id": 150744, "beds": 100.0, "address": "71-44 Yellowstone Blvd", "city": "Forest Hills", "zipcode": 11375 }, "geometry": { "type": "Point", "coordinates": [ -73.8549, 40.7215 ] } },
{ "type": "Feature", "properties": { "name": "Forest View Center For Rehabilitation & Nursing", "entity_id": 150745, "beds": 160.0, "address": "71-20 110th Street", "city": "Forest Hills", "zipcode": 11375 }, "geometry": { "type": "Point", "coordinates": [ -73.8413, 40.7217 ] } },
{ "type": "Feature", "properties": { "name": "Long Island Care Center Inc", "entity_id": 150746, "beds": 200.0, "address": "144-61 38th Ave", "city": "Flushing", "zipcode": 11354 }, "geometry": { "type": "Point", "coordinates": [ -73.8205, 40.7634 ] } },
{ "type": "Feature", "properties": { "name": "Meadow Park Rehabilitation And Health Care Center Llc", "entity_id": 150747, "beds": 143.0, "address": "78-10 164th Street", "city": "Flushing", "zipcode": 11366 }, "geometry": { "type": "Point", "coordinates": [ -73.8048, 40.7226 ] } },
{ "type": "Feature", "properties": { "name": "Oceanview Nursing & Rehabilitation Center, Llc", "entity_id": 150748, "beds": 102.0, "address": "315 Beach 9th Street", "city": "Far Rockaway", "zipcode": 11691 }, "geometry": { "type": "Point", "coordinates": [ -73.7446, 40.5979 ] } },
{ "type": "Feature", "properties": { "name": "Park Nursing Home", "entity_id": 150749, "beds": 196.0, "address": "128 Beach 115th Street", "city": "Rockaway Park", "zipcode": 11694 }, "geometry": { "type": "Point", "coordinates": [ -73.8354, 40.5787 ] } },
{ "type": "Feature", "properties": { "name": "Promenade Rehabilitation And Health Care Center", "entity_id": 150750, "beds": 240.0, "address": "140 Beach 114th Street", "city": "Rockaway Park", "zipcode": 11694 }, "geometry": { "type": "Point", "coordinates": [ -73.8347, 40.5792 ] } },
{ "type": "Feature", "properties": { "name": "Rego Park Nursing Home", "entity_id": 150751, "beds": 200.0, "address": "111-26 Corona Avenue", "city": "Flushing", "zipcode": 11368 }, "geometry": { "type": "Point", "coordinates": [ -73.8495, 40.7404 ] } },
{ "type": "Feature", "properties": { "name": "Resort Nursing Home", "entity_id": 150752, "beds": 280.0, "address": "430 Beach 68th Street", "city": "Arverne", "zipcode": 11692 }, "geometry": { "type": "Point", "coordinates": [ -73.7971, 40.5937 ] } },
{ "type": "Feature", "properties": { "name": "New Glen Oaks Nursing Home, Inc", "entity_id": 150753, "beds": 60.0, "address": "260-01 79th Avenue", "city": "Glen Oaks", "zipcode": 11004 }, "geometry": { "type": "Point", "coordinates": [ -73.7117, 40.7467 ] } },
{ "type": "Feature", "properties": { "name": "Park Terrace Care Center", "entity_id": 150754, "beds": 200.0, "address": "59-20 Van Doren Street", "city": "Rego Park", "zipcode": 11368 }, "geometry": { "type": "Point", "coordinates": [ -73.8493, 40.7388 ] } },
{ "type": "Feature", "properties": { "name": "Windsor Park Nursing Home", "entity_id": 150755, "beds": 70.0, "address": "212-40 Hillside Avenue", "city": "Queens Village", "zipcode": 11427 }, "geometry": { "type": "Point", "coordinates": [ -73.7531, 40.7251 ] } },
{ "type": "Feature", "properties": { "name": "Woodcrest Rehabilitation & Residential Health Care Center., Llc", "entity_id": 150756, "beds": 200.0, "address": "119-09 26th Avenue", "city": "College Point", "zipcode": 11354 }, "geometry": { "type": "Point", "coordinates": [ -73.8483, 40.7746 ] } },
{ "type": "Feature", "properties": { "name": "Little Neck Care Center", "entity_id": 150757, "beds": 120.0, "address": "260-19 Nassau Blvd", "city": "Little Neck", "zipcode": 11362 }, "geometry": { "type": "Point", "coordinates": [ -73.7243, 40.7659 ] } },
{ "type": "Feature", "properties": { "name": "Queens Nassau Rehabilitation And Nursing Center", "entity_id": 150758, "beds": 200.0, "address": "520 Beach 19th Street", "city": "Far Rockaway", "zipcode": 11691 }, "geometry": { "type": "Point", "coordinates": [ -73.7522, 40.6 ] } },
{ "type": "Feature", "properties": { "name": "Brookhaven Rehabilitation & Health Care Center Llc", "entity_id": 150759, "beds": 298.0, "address": "250 Beach 17th Street", "city": "Far Rockaway", "zipcode": 11691 }, "geometry": { "type": "Point", "coordinates": [ -73.7511, 40.5965 ] } },
{ "type": "Feature", "properties": { "name": "Midway Nursing Home", "entity_id": 150760, "beds": 200.0, "address": "69-95 Queens Midtown Expressway", "city": "Maspeth", "zipcode": 11378 }, "geometry": { "type": "Point", "coordinates": [ -73.8907, 40.7263 ] } },
{ "type": "Feature", "properties": { "name": "Dry Harbor Nursing Home", "entity_id": 150761, "beds": 360.0, "address": "61-35 Dry Harbor Road", "city": "Middle Village", "zipcode": 11379 }, "geometry": { "type": "Point", "coordinates": [ -73.8717, 40.7269 ] } },
{ "type": "Feature", "properties": { "name": "Lawrence Nursing Care Center, Inc", "entity_id": 150762, "beds": 200.0, "address": "350 Beach 54th Street", "city": "Arverne", "zipcode": 11692 }, "geometry": { "type": "Point", "coordinates": [ -73.7844, 40.594 ] } },
{ "type": "Feature", "properties": { "name": "Franklin Center For Rehabilitation And Nursing", "entity_id": 150763, "beds": 320.0, "address": "142-27 Franklin Avenue", "city": "Flushing", "zipcode": 11355 }, "geometry": { "type": "Point", "coordinates": [ -73.8228, 40.7568 ] } },
{ "type": "Feature", "properties": { "name": "Cypress Garden Center For Nursing And Rehabilitation", "entity_id": 150764, "beds": 268.0, "address": "139-62 35th Avenue", "city": "Flushing", "zipcode": 11354 }, "geometry": { "type": "Point", "coordinates": [ -73.8257, 40.7656 ] } },
{ "type": "Feature", "properties": { "name": "Jamaica Hospital Nursing Home Co Inc", "entity_id": 150765, "beds": 228.0, "address": "89-40 135th Street", "city": "Jamaica", "zipcode": 11418 }, "geometry": { "type": "Point", "coordinates": [ -73.8168, 40.7003 ] } },
{ "type": "Feature", "properties": { "name": "Highland Care Center", "entity_id": 150766, "beds": 320.0, "address": "91-31 175th Street", "city": "Jamaica", "zipcode": 11432 }, "geometry": { "type": "Point", "coordinates": [ -73.7858, 40.7085 ] } },
{ "type": "Feature", "properties": { "name": "Holliswood Center For Rehabilitation And Healthcare", "entity_id": 150767, "beds": 314.0, "address": "195-44 Woodhull Avenue", "city": "Hollis", "zipcode": 11423 }, "geometry": { "type": "Point", "coordinates": [ -73.7644, 40.7121 ] } },
{ "type": "Feature", "properties": { "name": "Hillside Manor Rehab & Extended Care Center", "entity_id": 150768, "beds": 400.0, "address": "182-15 Hillside Avenue", "city": "Jamaica Estates", "zipcode": 11432 }, "geometry": { "type": "Point", "coordinates": [ -73.7801, 40.7136 ] } },
{ "type": "Feature", "properties": { "name": "Chapin Home For The Aging", "entity_id": 150769, "beds": 220.0, "address": "165-01 Chapin Parkway", "city": "Jamaica", "zipcode": 11432 }, "geometry": { "type": "Point", "coordinates": [ -73.8012, 40.7143 ] } },
{ "type": "Feature", "properties": { "name": "West Lawrence Care Center, Llc", "entity_id": 150770, "beds": 215.0, "address": "1410 Seagirt Blvd", "city": "Far Rockaway", "zipcode": 11691 }, "geometry": { "type": "Point", "coordinates": [ -73.7484, 40.5954 ] } },
{ "type": "Feature", "properties": { "name": "Horizon Care Center", "entity_id": 150771, "beds": 280.0, "address": "64-11 Beach Channel Drive", "city": "Arverne", "zipcode": 11692 }, "geometry": { "type": "Point", "coordinates": [ -73.7936, 40.5929 ] } },
{ "type": "Feature", "properties": { "name": "Beacon Rehabilitation And Nursing Center", "entity_id": 150772, "beds": 120.0, "address": "140 Beach 113th Street", "city": "Rockaway Park", "zipcode": 11694 }, "geometry": { "type": "Point", "coordinates": [ -73.8339, 40.5794 ] } },
{ "type": "Feature", "properties": { "name": "Eger Health Care And Rehabilitation Center", "entity_id": 150773, "beds": 378.0, "address": "140 Meisner Avenue", "city": "Staten Island", "zipcode": 10306 }, "geometry": { "type": "Point", "coordinates": [ -74.1315, 40.5796 ] } },
{ "type": "Feature", "properties": { "name": "Sea View Hospital, Rehabilitation Center And Home", "entity_id": 150774, "beds": 304.0, "address": "460 Brielle Ave", "city": "Staten Island", "zipcode": 10314 }, "geometry": { "type": "Point", "coordinates": [ -74.1353, 40.5939 ] } },
{ "type": "Feature", "properties": { "name": "Clove Lakes Health Care And Rehabilitation Center, Inc", "entity_id": 150775, "beds": 576.0, "address": "25 Fanning Street", "city": "Staten Island", "zipcode": 10314 }, "geometry": { "type": "Point", "coordinates": [ -74.123, 40.6084 ] } },
{ "type": "Feature", "properties": { "name": "New Vanderbilt Rehabilitation And Care Center, Inc", "entity_id": 150777, "beds": 320.0, "address": "135 Vanderbilt Ave", "city": "Staten Island", "zipcode": 10304 }, "geometry": { "type": "Point", "coordinates": [ -74.0763, 40.6206 ] } },
{ "type": "Feature", "properties": { "name": "Silver Lake Specialized Rehabilitation And Care Center", "entity_id": 150778, "beds": 278.0, "address": "275 Castleton Avenue", "city": "Staten Island", "zipcode": 10301 }, "geometry": { "type": "Point", "coordinates": [ -74.0922, 40.6334 ] } },
{ "type": "Feature", "properties": { "name": "Verrazano Nursing Home", "entity_id": 150779, "beds": 120.0, "address": "100 Castleton Avenue", "city": "Staten Island", "zipcode": 10301 }, "geometry": { "type": "Point", "coordinates": [ -74.0876, 40.6343 ] } },
{ "type": "Feature", "properties": { "name": "Carmel Richmond Healthcare And Rehabilitation Center", "entity_id": 150780, "beds": 300.0, "address": "88 Old Town Road", "city": "Staten Island", "zipcode": 10304 }, "geometry": { "type": "Point", "coordinates": [ -74.0906, 40.5962 ] } },
{ "type": "Feature", "properties": { "name": "Staten Island Care Center", "entity_id": 150781, "beds": 300.0, "address": "200 Lafayette Avenue", "city": "Staten Island", "zipcode": 10301 }, "geometry": { "type": "Point", "coordinates": [ -74.0943, 40.64 ] } },
{ "type": "Feature", "properties": { "name": "Golden Gate Rehabilitation & Health Care Center", "entity_id": 150782, "beds": 238.0, "address": "191 Bradley Ave", "city": "Staten Island", "zipcode": 10314 }, "geometry": { "type": "Point", "coordinates": [ -74.1318, 40.6069 ] } },
{ "type": "Feature", "properties": { "name": "Middletown Park Rehabilitation & Health Care Center", "entity_id": 150783, "beds": 230.0, "address": "121 Dunning Road", "city": "Middletown", "zipcode": 10940 }, "geometry": { "type": "Point", "coordinates": [ -74.3826, 41.4525 ] } },
{ "type": "Feature", "properties": { "name": "Menorah Home & Hospital For Aged & Infirm", "entity_id": 150784, "beds": 436.0, "address": "1516 Oriental Boulevard", "city": "Brooklyn", "zipcode": 11235 }, "geometry": { "type": "Point", "coordinates": [ -73.9392, 40.5783 ] } },
{ "type": "Feature", "properties": { "name": "Campbell Hall Rehabilitation Center Inc", "entity_id": 150785, "beds": 134.0, "address": "23 Kiernan Rd", "city": "Campbell Hall", "zipcode": 10916 }, "geometry": { "type": "Point", "coordinates": [ -74.2803, 41.4533 ] } },
{ "type": "Feature", "properties": { "name": "Groton Community Health Care Center Residential Care Facility", "entity_id": 150786, "beds": 80.0, "address": "120 Sykes Street", "city": "Groton", "zipcode": 13073 }, "geometry": { "type": "Point", "coordinates": [ -76.3706, 42.5855 ] } },
{ "type": "Feature", "properties": { "name": "Heritage Green Rehab & Skilled Nursing", "entity_id": 150787, "beds": 134.0, "address": "P.o. Box 400, Route 430", "city": "Greenhurst", "zipcode": 14742 }, "geometry": { "type": "Point", "coordinates": [ -79.3105, 42.1194 ] } },
{ "type": "Feature", "properties": { "name": "Dumont Center For Rehabilitation And Nursing Care", "entity_id": 150788, "beds": 196.0, "address": "676 Pelham Road", "city": "New Rochelle", "zipcode": 10805 }, "geometry": { "type": "Point", "coordinates": [ -73.7872, 40.8905 ] } },
{ "type": "Feature", "properties": { "name": "Wellsville Manor Care Center", "entity_id": 150790, "beds": 120.0, "address": "4192a Bolivar Road", "city": "Wellsville", "zipcode": 14895 }, "geometry": { "type": "Point", "coordinates": [ -77.9678, 42.1265 ] } },
{ "type": "Feature", "properties": { "name": "Elderwood At Williamsville", "entity_id": 150791, "beds": 200.0, "address": "200 Bassett Road", "city": "Williamsville", "zipcode": 14221 }, "geometry": { "type": "Point", "coordinates": [ -78.7315, 42.9969 ] } },
{ "type": "Feature", "properties": { "name": "Autumn View Health Care Facility, Llc", "entity_id": 150792, "beds": 230.0, "address": "S 4650 Southwestern Blvd", "city": "Hamburg", "zipcode": 14075 }, "geometry": { "type": "Point", "coordinates": [ -78.8323, 42.7601 ] } },
{ "type": "Feature", "properties": { "name": "Leroy Village Green Nursing And Rehabilitation Center", "entity_id": 150793, "beds": 140.0, "address": "10 Munson Street", "city": "Le Roy", "zipcode": 14482 }, "geometry": { "type": "Point", "coordinates": [ -77.9945, 42.9711 ] } },
{ "type": "Feature", "properties": { "name": "Buffalo Center For Rehabilitation And Nursing", "entity_id": 150794, "beds": 200.0, "address": "1014 Delaware Ave", "city": "Buffalo", "zipcode": 14209 }, "geometry": { "type": "Point", "coordinates": [ -78.8703, 42.9118 ] } },
{ "type": "Feature", "properties": { "name": "Good Samaritan Nursing And Rehabilitation Care Center", "entity_id": 150795, "beds": 100.0, "address": "101 Elm Street", "city": "Sayville", "zipcode": 11782 }, "geometry": { "type": "Point", "coordinates": [ -73.0795, 40.7256 ] } },
{ "type": "Feature", "properties": { "name": "Onondaga Center For Rehabilitation And Nursing", "entity_id": 150796, "beds": 80.0, "address": "217 East Avenue", "city": "Minoa", "zipcode": 13116 }, "geometry": { "type": "Point", "coordinates": [ -75.9976, 43.0791 ] } },
{ "type": "Feature", "properties": { "name": "Safire Rehabilitation Of Southtowns, Llc", "entity_id": 150797, "beds": 120.0, "address": "300 Dorrance Avenue", "city": "Buffalo", "zipcode": 14220 }, "geometry": { "type": "Point", "coordinates": [ -78.8104, 42.8321 ] } },
{ "type": "Feature", "properties": { "name": "Terence Cardinal Cooke Health Care Center", "entity_id": 150798, "beds": 559.0, "address": "1249 Fifth Avenue", "city": "New York", "zipcode": 10029 }, "geometry": { "type": "Point", "coordinates": [ -73.9511, 40.7942 ] } },
{ "type": "Feature", "properties": { "name": "Bezalel Rehabilitation And Nursing Center", "entity_id": 150799, "beds": 120.0, "address": "29-38 Far Rockaway Blvd", "city": "Far Rockaway", "zipcode": 11691 }, "geometry": { "type": "Point", "coordinates": [ -73.7647, 40.5985 ] } },
{ "type": "Feature", "properties": { "name": "Kirkhaven", "entity_id": 150800, "beds": 147.0, "address": "254 Alexander Street", "city": "Rochester", "zipcode": 14607 }, "geometry": { "type": "Point", "coordinates": [ -77.596, 43.1519 ] } },
{ "type": "Feature", "properties": { "name": "Valley Health Services Inc", "entity_id": 150801, "beds": 160.0, "address": "690 West German Street", "city": "Herkimer", "zipcode": 13350 }, "geometry": { "type": "Point", "coordinates": [ -74.9984, 43.0256 ] } },
{ "type": "Feature", "properties": { "name": "Highpointe On Michigan Health Care Facility", "entity_id": 150802, "beds": 300.0, "address": "1031 Michigan Avenue", "city": "Buffalo", "zipcode": 14203 }, "geometry": { "type": "Point", "coordinates": [ -78.8627, 42.9009 ] } },
{ "type": "Feature", "properties": { "name": "Four Seasons Nursing And Rehabilitation Center", "entity_id": 150804, "beds": 270.0, "address": "1555 Rockaway Parkway", "city": "Brooklyn", "zipcode": 11236 }, "geometry": { "type": "Point", "coordinates": [ -73.8996, 40.6428 ] } },
{ "type": "Feature", "properties": { "name": "The Hamlet Rehabilitation And Healthcare Center At Nesconset", "entity_id": 150805, "beds": 240.0, "address": "100 Southern Boulevard", "city": "Nesconset", "zipcode": 11767 }, "geometry": { "type": "Point", "coordinates": [ -73.1587, 40.8495 ] } },
{ "type": "Feature", "properties": { "name": "James G. Johnston Memorial Nursing Home", "entity_id": 150806, "beds": 120.0, "address": "286 Deyo Hill Road", "city": "Johnson City", "zipcode": 13790 }, "geometry": { "type": "Point", "coordinates": [ -75.9557, 42.1451 ] } },
{ "type": "Feature", "properties": { "name": "Elderwood At Liverpool", "entity_id": 150807, "beds": 160.0, "address": "4800 Bear Road", "city": "Liverpool", "zipcode": 13088 }, "geometry": { "type": "Point", "coordinates": [ -76.1814, 43.1228 ] } },
{ "type": "Feature", "properties": { "name": "Haven Manor Health Care Center,Llc", "entity_id": 150808, "beds": 240.0, "address": "1441 Gateway Boulevard", "city": "Far Rockaway", "zipcode": 11691 }, "geometry": { "type": "Point", "coordinates": [ -73.75, 40.601 ] } },
{ "type": "Feature", "properties": { "name": "Hollis Park Manor Nursing Home", "entity_id": 150809, "beds": 80.0, "address": "191-06 Hillside Avenue", "city": "Hollis", "zipcode": 11423 }, "geometry": { "type": "Point", "coordinates": [ -73.7709, 40.7159 ] } },
{ "type": "Feature", "properties": { "name": "Eddy Memorial Geriatric Center", "entity_id": 150810, "beds": 80.0, "address": "2256 Burdett Avenue", "city": "Troy", "zipcode": 12180 }, "geometry": { "type": "Point", "coordinates": [ -73.6709, 42.7349 ] } },
{ "type": "Feature", "properties": { "name": "Elderwood At Hamburg", "entity_id": 150811, "beds": 166.0, "address": "5775 Maelou Drive", "city": "Hamburg", "zipcode": 14075 }, "geometry": { "type": "Point", "coordinates": [ -78.834, 42.7306 ] } },
{ "type": "Feature", "properties": { "name": "East Neck Nursing & Rehabilitation Center", "entity_id": 150812, "beds": 300.0, "address": "134 Great East Neck Road", "city": "West Babylon", "zipcode": 11704 }, "geometry": { "type": "Point", "coordinates": [ -73.3451, 40.6908 ] } },
{ "type": "Feature", "properties": { "name": "Absolut Center For Nursing And Rehabilitation At Westfield, Llc", "entity_id": 150813, "beds": 120.0, "address": "26 Cass Street", "city": "Westfield", "zipcode": 14787 }, "geometry": { "type": "Point", "coordinates": [ -79.5724, 42.3281 ] } },
{ "type": "Feature", "properties": { "name": "Jewish Home Of Rochester", "entity_id": 150814, "beds": 328.0, "address": "2021 South Winton Road", "city": "Rochester", "zipcode": 14618 }, "geometry": { "type": "Point", "coordinates": [ -77.5776, 43.1046 ] } },
{ "type": "Feature", "properties": { "name": "Unity Living Center", "entity_id": 150815, "beds": 120.0, "address": "89 Genesee St", "city": "Rochester", "zipcode": 14611 }, "geometry": { "type": "Point", "coordinates": [ -77.6361, 43.149 ] } },
{ "type": "Feature", "properties": { "name": "Beach Gardens Rehab And Nursing Center", "entity_id": 150816, "beds": 163.0, "address": "17-11 Brookhaven Avenue", "city": "Far Rockaway", "zipcode": 11691 }, "geometry": { "type": "Point", "coordinates": [ -73.7517, 40.599 ] } },
{ "type": "Feature", "properties": { "name": "Sapphire Nursing And Rehab At Goshen", "entity_id": 150817, "beds": 120.0, "address": "46 Harriman Drive", "city": "Goshen", "zipcode": 10924 }, "geometry": { "type": "Point", "coordinates": [ -74.3185, 41.3891 ] } },
{ "type": "Feature", "properties": { "name": "Long Island State Veterans Home", "entity_id": 150818, "beds": 350.0, "address": "Suny at Stonybrook 100 Patriots Road", "city": "Stonybrook", "zipcode": 11790 }, "geometry": { "type": "Point", "coordinates": [ -73.1217, 40.9121 ] } },
{ "type": "Feature", "properties": { "name": "St Catherine Of Siena Nursing And Rehabilitation Care Center", "entity_id": 150819, "beds": 240.0, "address": "52 Route 25a", "city": "Smithtown", "zipcode": 11787 }, "geometry": { "type": "Point", "coordinates": [ -73.2202, 40.8677 ] } },
{ "type": "Feature", "properties": { "name": "Bellhaven Center For Rehabilitation And Nursing Care", "entity_id": 150820, "beds": 240.0, "address": "110 Beaver Dam Road", "city": "Brookhaven", "zipcode": 11719 }, "geometry": { "type": "Point", "coordinates": [ -72.9337, 40.7724 ] } },
{ "type": "Feature", "properties": { "name": "Smithtown Center For Rehabilitation & Nursing Care", "entity_id": 150821, "beds": 162.0, "address": "391 North Country Road", "city": "Smithtown", "zipcode": 11787 }, "geometry": { "type": "Point", "coordinates": [ -73.1712, 40.8726 ] } },
{ "type": "Feature", "properties": { "name": "Harris Hill Nursing Facility, Llc", "entity_id": 150822, "beds": 192.0, "address": "2699 Wehrle Drive", "city": "Williamsville", "zipcode": 14221 }, "geometry": { "type": "Point", "coordinates": [ -78.6886, 42.9563 ] } },
{ "type": "Feature", "properties": { "name": "Yorktown Rehabilitation & Nursing Center", "entity_id": 150823, "beds": 125.0, "address": "2300 Catherine Street", "city": "Cortlandt Manor", "zipcode": 10567 }, "geometry": { "type": "Point", "coordinates": [ -73.8498, 41.282 ] } },
{ "type": "Feature", "properties": { "name": "Salem Hills Rehabilitation And Nursing Center", "entity_id": 150824, "beds": 126.0, "address": "539 Route 22, P.o. Box 360", "city": "Purdys", "zipcode": 10578 }, "geometry": { "type": "Point", "coordinates": [ -73.6568, 41.3289 ] } },
{ "type": "Feature", "properties": { "name": "Peconic Bay Skilled Nursing Facility", "entity_id": 150825, "beds": 60.0, "address": "1300 Roanoke Avenue", "city": "Riverhead", "zipcode": 11901 }, "geometry": { "type": "Point", "coordinates": [ -72.6743, 40.9336 ] } },
{ "type": "Feature", "properties": { "name": "White Oaks Rehabilitation And Nursing Center", "entity_id": 150826, "beds": 200.0, "address": "8565 Jericho Turnpike", "city": "Woodbury", "zipcode": 11797 }, "geometry": { "type": "Point", "coordinates": [ -73.4563, 40.8191 ] } },
{ "type": "Feature", "properties": { "name": "Elderwood At Hornell", "entity_id": 150827, "beds": 112.0, "address": "One Bethesda Drive", "city": "N Hornell", "zipcode": 14843 }, "geometry": { "type": "Point", "coordinates": [ -77.6604, 42.3463 ] } },
{ "type": "Feature", "properties": { "name": "Dunkirk Rehabilitation & Nursing Center", "entity_id": 150828, "beds": 40.0, "address": "447-449 Lake Shore Drive West", "city": "Dunkirk", "zipcode": 14048 }, "geometry": { "type": "Point", "coordinates": [ -79.3528, 42.4844 ] } },
{ "type": "Feature", "properties": { "name": "Eden Rehabilitation & Nursing Center", "entity_id": 150829, "beds": 40.0, "address": "2806 George Street", "city": "Eden", "zipcode": 14057 }, "geometry": { "type": "Point", "coordinates": [ -78.8958, 42.6589 ] } },
{ "type": "Feature", "properties": { "name": "St. Josephs Place", "entity_id": 150830, "beds": 46.0, "address": "160 East Main Street", "city": "Port Jervis", "zipcode": 12771 }, "geometry": { "type": "Point", "coordinates": [ -74.6825, 41.3679 ] } },
{ "type": "Feature", "properties": { "name": "Rosewood Rehabilitation And Nursing Center", "entity_id": 150831, "beds": 80.0, "address": "284 Troy Road", "city": "Rensselaer", "zipcode": 12144 }, "geometry": { "type": "Point", "coordinates": [ -73.6985, 42.6434 ] } },
{ "type": "Feature", "properties": { "name": "Brookhaven Health Care Facility, Llc", "entity_id": 150832, "beds": 160.0, "address": "801 Gazzola Blvd", "city": "Patchogue", "zipcode": 11772 }, "geometry": { "type": "Point", "coordinates": [ -72.9723, 40.7819 ] } },
{ "type": "Feature", "properties": { "name": "Caring Family Nursing And Rehabilitation Center", "entity_id": 150833, "beds": 183.0, "address": "22-41 New Haven Avenue", "city": "Far Rockaway", "zipcode": 11691 }, "geometry": { "type": "Point", "coordinates": [ -73.7565, 40.6011 ] } },
{ "type": "Feature", "properties": { "name": "Elizabeth Seton Children's Center", "entity_id": 150834, "beds": 169.0, "address": "300 Corporate Boulevard South", "city": "Yonkers", "zipcode": 10701 }, "geometry": { "type": "Point", "coordinates": [ -73.8787, 40.969 ] } },
{ "type": "Feature", "properties": { "name": "Gurwin Jewish Nursing And Rehabilitation Center", "entity_id": 150835, "beds": 460.0, "address": "68 Hauppauge Road", "city": "Commack", "zipcode": 11725 }, "geometry": { "type": "Point", "coordinates": [ -73.2999, 40.8282 ] } },
{ "type": "Feature", "properties": { "name": "Manhattanville Health Care Center", "entity_id": 150836, "beds": 200.0, "address": "311 W 231st Street", "city": "Bronx", "zipcode": 10463 }, "geometry": { "type": "Point", "coordinates": [ -73.9085, 40.881 ] } },
{ "type": "Feature", "properties": { "name": "Eddy Village Green", "entity_id": 150837, "beds": 192.0, "address": "421 W Columbia Street", "city": "Cohoes", "zipcode": 12047 }, "geometry": { "type": "Point", "coordinates": [ -73.7251, 42.7727 ] } },
{ "type": "Feature", "properties": { "name": "Bushwick Center For Rehabilitation And Health Care", "entity_id": 150838, "beds": 225.0, "address": "50 Sheffield Avenue", "city": "Brooklyn", "zipcode": 11207 }, "geometry": { "type": "Point", "coordinates": [ -73.8981, 40.6763 ] } },
{ "type": "Feature", "properties": { "name": "North Shore-Lij Orzac Center For Rehabilitation", "entity_id": 150839, "beds": 120.0, "address": "900 Franklin Avenue", "city": "Valley Stream", "zipcode": 11580 }, "geometry": { "type": "Point", "coordinates": [ -73.6858, 40.6818 ] } },
{ "type": "Feature", "properties": { "name": "Northwell Health Stern Family Center For Rehabilitation", "entity_id": 150840, "beds": 256.0, "address": "330 Community Drive", "city": "Manhasset", "zipcode": 11030 }, "geometry": { "type": "Point", "coordinates": [ -73.7, 40.7738 ] } },
{ "type": "Feature", "properties": { "name": "Pathways Nursing And Rehabilitation Center", "entity_id": 150841, "beds": 110.0, "address": "1805 Providence Avenue", "city": "Niskayuna", "zipcode": 12309 }, "geometry": { "type": "Point", "coordinates": [ -73.8973, 42.8293 ] } },
{ "type": "Feature", "properties": { "name": "St Johnsville Rehabilitation And Nursing Center", "entity_id": 150842, "beds": 120.0, "address": "7 Timmerman Avenue", "city": "St Johnsville", "zipcode": 13452 }, "geometry": { "type": "Point", "coordinates": [ -74.6868, 42.999 ] } },
{ "type": "Feature", "properties": { "name": "Ellis Residential & Rehabilitation Center", "entity_id": 150843, "beds": 82.0, "address": "600 Mcclellan Street", "city": "Schenectady", "zipcode": 12304 }, "geometry": { "type": "Point", "coordinates": [ -73.9176, 42.8051 ] } },
{ "type": "Feature", "properties": { "name": "Ira Davenport Memorial Hospital Snf\/Hrf", "entity_id": 150844, "beds": 120.0, "address": "7571 State Route 54", "city": "Bath", "zipcode": 14810 }, "geometry": { "type": "Point", "coordinates": [ -77.2787, 42.373 ] } },
{ "type": "Feature", "properties": { "name": "Slate Valley Center For Rehabilitation And Nursing", "entity_id": 150846, "beds": 88.0, "address": "10421 State Route 40", "city": "Granville", "zipcode": 12832 }, "geometry": { "type": "Point", "coordinates": [ -73.3634, 43.4517 ] } },
{ "type": "Feature", "properties": { "name": "Hamilton Park Nursing And Rehabilitation Center", "entity_id": 150847, "beds": 200.0, "address": "691 92 Street", "city": "Brooklyn", "zipcode": 11228 }, "geometry": { "type": "Point", "coordinates": [ -74.0238, 40.6152 ] } },
{ "type": "Feature", "properties": { "name": "Syracuse Home Association", "entity_id": 150848, "beds": 120.0, "address": "7740 Meigs Road", "city": "Baldwinsville", "zipcode": 13027 }, "geometry": { "type": "Point", "coordinates": [ -76.3447, 43.1446 ] } },
{ "type": "Feature", "properties": { "name": "Highbridge Woodycrest Center", "entity_id": 150849, "beds": 90.0, "address": "936 Woodycrest Avenue", "city": "Bronx", "zipcode": 10452 }, "geometry": { "type": "Point", "coordinates": [ -73.9293, 40.8309 ] } },
{ "type": "Feature", "properties": { "name": "Hope Center For Hiv And Nursing Care", "entity_id": 150850, "beds": 66.0, "address": "1401 University Avenue", "city": "Bronx", "zipcode": 10452 }, "geometry": { "type": "Point", "coordinates": [ -73.9258, 40.8426 ] } },
{ "type": "Feature", "properties": { "name": "Silvercrest", "entity_id": 150851, "beds": 320.0, "address": "144-45 87th Avenue", "city": "Jamaica", "zipcode": 11435 }, "geometry": { "type": "Point", "coordinates": [ -73.8116, 40.7069 ] } },
{ "type": "Feature", "properties": { "name": "Saints Joachim & Anne Nursing And Rehabilitation Center", "entity_id": 150852, "beds": 200.0, "address": "2720 Surf Avenue", "city": "Brooklyn", "zipcode": 11224 }, "geometry": { "type": "Point", "coordinates": [ -73.993, 40.573 ] } },
{ "type": "Feature", "properties": { "name": "Elderwood At Cheektowaga", "entity_id": 150853, "beds": 172.0, "address": "225 Bennett Road", "city": "Cheektowaga", "zipcode": 14227 }, "geometry": { "type": "Point", "coordinates": [ -78.747, 42.8893 ] } },
{ "type": "Feature", "properties": { "name": "Crouse Community Center Inc", "entity_id": 150854, "beds": 120.0, "address": "101 South Street", "city": "Morrisville", "zipcode": 13408 }, "geometry": { "type": "Point", "coordinates": [ -75.6385, 42.8939 ] } },
{ "type": "Feature", "properties": { "name": "Bronxcare Special Care Center", "entity_id": 150855, "beds": 240.0, "address": "1265 Fulton Avenue", "city": "Bronx", "zipcode": 10456 }, "geometry": { "type": "Point", "coordinates": [ -73.9039, 40.8317 ] } },
{ "type": "Feature", "properties": { "name": "Norwich Rehabilitation & Nursing Center", "entity_id": 150856, "beds": 80.0, "address": "88 Calvary Drive", "city": "Norwich", "zipcode": 13815 }, "geometry": { "type": "Point", "coordinates": [ -75.5263, 42.5474 ] } },
{ "type": "Feature", "properties": { "name": "St Marys Center Inc", "entity_id": 150857, "beds": 40.0, "address": "516 West 126th Street", "city": "New York", "zipcode": 10027 }, "geometry": { "type": "Point", "coordinates": [ -73.9562, 40.8146 ] } },
{ "type": "Feature", "properties": { "name": "St Vincent Depaul Residence", "entity_id": 150858, "beds": 120.0, "address": "900 Intervale Avenue", "city": "Bronx", "zipcode": 10459 }, "geometry": { "type": "Point", "coordinates": [ -73.8961, 40.8191 ] } },
{ "type": "Feature", "properties": { "name": "Eddy Heritage House Nursing And Rehabilitation Center", "entity_id": 150859, "beds": 120.0, "address": "2920 Tibbits Avenue", "city": "Troy", "zipcode": 12180 }, "geometry": { "type": "Point", "coordinates": [ -73.663, 42.7312 ] } },
{ "type": "Feature", "properties": { "name": "Ghent Rehabilitation & Nursing Center", "entity_id": 150860, "beds": 120.0, "address": "1 Whittier Way", "city": "Ghent", "zipcode": 12075 }, "geometry": { "type": "Point", "coordinates": [ -73.7032, 42.2848 ] } },
{ "type": "Feature", "properties": { "name": "Luxor Nursing And Rehabilitation At Sayville", "entity_id": 150861, "beds": 180.0, "address": "300 Broadway Avenue", "city": "Sayville", "zipcode": 11782 }, "geometry": { "type": "Point", "coordinates": [ -73.0666, 40.7641 ] } },
{ "type": "Feature", "properties": { "name": "Iroquois Nursing Home Inc", "entity_id": 150862, "beds": 160.0, "address": "4600 Southwood Heights Drive", "city": "Jamesville", "zipcode": 13078 }, "geometry": { "type": "Point", "coordinates": [ -76.12, 42.9956 ] } },
{ "type": "Feature", "properties": { "name": "Ten Broeck Center For Rehabilitation & Nursing", "entity_id": 150863, "beds": 258.0, "address": "One Commons Drive", "city": "Lake Katrine", "zipcode": 12449 }, "geometry": { "type": "Point", "coordinates": [ -73.9962, 41.9919 ] } },
{ "type": "Feature", "properties": { "name": "Our Lady Of Mercy Life Center", "entity_id": 150864, "beds": 160.0, "address": "2 Mercycare Lane", "city": "Guilderland", "zipcode": 12084 }, "geometry": { "type": "Point", "coordinates": [ -73.9048, 42.7012 ] } },
{ "type": "Feature", "properties": { "name": "Rosa Coplon Jewish Home And Infirmary", "entity_id": 150865, "beds": 180.0, "address": "2700 North Forest Road", "city": "Getzville", "zipcode": 14068 }, "geometry": { "type": "Point", "coordinates": [ -78.7861, 43.0155 ] } },
{ "type": "Feature", "properties": { "name": "Guthrie Cortland Medical Center", "entity_id": 150866, "beds": 80.0, "address": "134 Homer Avenue", "city": "Cortland", "zipcode": 13045 }, "geometry": { "type": "Point", "coordinates": [ -76.1862, 42.6091 ] } },
{ "type": "Feature", "properties": { "name": "Edna Tina Wilson Living Center", "entity_id": 150868, "beds": 120.0, "address": "700 Island Cottage Road", "city": "Rochester", "zipcode": 14612 }, "geometry": { "type": "Point", "coordinates": [ -77.6638, 43.2661 ] } },
{ "type": "Feature", "properties": { "name": "Throgs Neck Rehabilitation & Nursing Center", "entity_id": 150869, "beds": 205.0, "address": "707 Throgs Neck Expressway", "city": "Bronx", "zipcode": 10465 }, "geometry": { "type": "Point", "coordinates": [ -73.8183, 40.8276 ] } },
{ "type": "Feature", "properties": { "name": "Nys Veterans Home In Nyc", "entity_id": 150870, "beds": 250.0, "address": "178-50 Linden Blvd", "city": "Jamaica", "zipcode": 11434 }, "geometry": { "type": "Point", "coordinates": [ -73.7691, 40.6926 ] } },
{ "type": "Feature", "properties": { "name": "Richmond Center For Rehabilitation And Specialty Healthcare", "entity_id": 150871, "beds": 372.0, "address": "91 Tompkins Avenue", "city": "Staten Island", "zipcode": 10304 }, "geometry": { "type": "Point", "coordinates": [ -74.0784, 40.6224 ] } },
{ "type": "Feature", "properties": { "name": "Seton Health At Schuyler Ridge Residential Healthcare", "entity_id": 150872, "beds": 120.0, "address": "1 Abele Boulevard", "city": "Clifton Park", "zipcode": 12065 }, "geometry": { "type": "Point", "coordinates": [ -73.7817, 42.8689 ] } },
{ "type": "Feature", "properties": { "name": "Bronx Gardens Rehabilitation And Nursing Center", "entity_id": 150873, "beds": 199.0, "address": "2175 Quarry Rd", "city": "Bronx", "zipcode": 10457 }, "geometry": { "type": "Point", "coordinates": [ -73.8903, 40.8524 ] } },
{ "type": "Feature", "properties": { "name": "Father Baker Manor", "entity_id": 150874, "beds": 160.0, "address": "6400 Powers Road", "city": "Orchard Park", "zipcode": 14127 }, "geometry": { "type": "Point", "coordinates": [ -78.7524, 42.7322 ] } },
{ "type": "Feature", "properties": { "name": "The Highlands At Brighton", "entity_id": 150875, "beds": 145.0, "address": "5901 Lac De Ville Blvd", "city": "Rochester", "zipcode": 14618 }, "geometry": { "type": "Point", "coordinates": [ -77.5932, 43.1123 ] } },
{ "type": "Feature", "properties": { "name": "Hopkins Center For Rehabilitation And Healthcare", "entity_id": 150876, "beds": 288.0, "address": "155 Dean Street", "city": "Brooklyn", "zipcode": 11217 }, "geometry": { "type": "Point", "coordinates": [ -73.9871, 40.6863 ] } },
{ "type": "Feature", "properties": { "name": "Casa Promesa", "entity_id": 150877, "beds": 108.0, "address": "308 East 175 Street", "city": "Bronx", "zipcode": 10457 }, "geometry": { "type": "Point", "coordinates": [ -73.9045, 40.8466 ] } },
{ "type": "Feature", "properties": { "name": "Westhampton Care Center", "entity_id": 150879, "beds": 180.0, "address": "78 Old Country Road", "city": "Westhampton", "zipcode": 11977 }, "geometry": { "type": "Point", "coordinates": [ -72.678, 40.8259 ] } },
{ "type": "Feature", "properties": { "name": "Schervier Pavilion", "entity_id": 150880, "beds": 120.0, "address": "22 Van Duzer Place", "city": "Warwick", "zipcode": 10990 }, "geometry": { "type": "Point", "coordinates": [ -74.359, 41.2621 ] } },
{ "type": "Feature", "properties": { "name": "Nassau Rehabilitation & Nursing Center", "entity_id": 150881, "beds": 280.0, "address": "One Greenwich Street", "city": "Hempstead", "zipcode": 11550 }, "geometry": { "type": "Point", "coordinates": [ -73.6236, 40.7062 ] } },
{ "type": "Feature", "properties": { "name": "Finger Lakes Center For Living", "entity_id": 150882, "beds": 80.0, "address": "20 Park Avenue", "city": "Auburn", "zipcode": 13021 }, "geometry": { "type": "Point", "coordinates": [ -76.565, 42.9424 ] } },
{ "type": "Feature", "properties": { "name": "Highlands Living Center", "entity_id": 150883, "beds": 120.0, "address": "500 Hahnemann Trail", "city": "Pittsford", "zipcode": 14534 }, "geometry": { "type": "Point", "coordinates": [ -77.4986, 43.0877 ] } },
{ "type": "Feature", "properties": { "name": "Western New York State Veterans Home", "entity_id": 150884, "beds": 126.0, "address": "220 Richmond Avenue", "city": "Batavia", "zipcode": 14020 }, "geometry": { "type": "Point", "coordinates": [ -78.1985, 43.0092 ] } },
{ "type": "Feature", "properties": { "name": "Wingate Of Dutchess", "entity_id": 150885, "beds": 160.0, "address": "3 Summit Court", "city": "Fishkill", "zipcode": 12524 }, "geometry": { "type": "Point", "coordinates": [ -73.8867, 41.5409 ] } },
{ "type": "Feature", "properties": { "name": "Elderwood At Wheatfield", "entity_id": 150886, "beds": 123.0, "address": "2600 Niagara Falls Boulevard", "city": "Niagara Falls", "zipcode": 14304 }, "geometry": { "type": "Point", "coordinates": [ -78.9062, 43.0923 ] } },
{ "type": "Feature", "properties": { "name": "Oneida Center For Rehabilitation And Nursing", "entity_id": 150887, "beds": 120.0, "address": "1445 Kemble Street", "city": "Utica", "zipcode": 13501 }, "geometry": { "type": "Point", "coordinates": [ -75.2424, 43.0931 ] } },
{ "type": "Feature", "properties": { "name": "Queens Boulevard Extended Care Facility", "entity_id": 150888, "beds": 280.0, "address": "61-11 Queens Boulevard", "city": "Woodside", "zipcode": 11377 }, "geometry": { "type": "Point", "coordinates": [ -73.9035, 40.7416 ] } },
{ "type": "Feature", "properties": { "name": "Kendal At Ithaca", "entity_id": 150889, "beds": 48.0, "address": "2230 North Triphammer Road", "city": "Ithaca", "zipcode": 14850 }, "geometry": { "type": "Point", "coordinates": [ -76.4819, 42.4763 ] } },
{ "type": "Feature", "properties": { "name": "Northern Manhattan Rehabilitation And Nursing Center", "entity_id": 150890, "beds": 320.0, "address": "116 East 125th St", "city": "New York", "zipcode": 10035 }, "geometry": { "type": "Point", "coordinates": [ -73.9381, 40.8046 ] } },
{ "type": "Feature", "properties": { "name": "Meadowbrook Care Center, Inc", "entity_id": 150891, "beds": 280.0, "address": "320 West Merrick Road", "city": "Freeport", "zipcode": 11520 }, "geometry": { "type": "Point", "coordinates": [ -73.5945, 40.652 ] } },
{ "type": "Feature", "properties": { "name": "Union Plaza Care Center", "entity_id": 150892, "beds": 280.0, "address": "33-23 Union Street", "city": "Flushing", "zipcode": 11354 }, "geometry": { "type": "Point", "coordinates": [ -73.827, 40.7674 ] } },
{ "type": "Feature", "properties": { "name": "Townhouse Center For Rehabilitation & Nursing", "entity_id": 150893, "beds": 280.0, "address": "755 Hempstead Turnpike", "city": "Uniondale", "zipcode": 11553 }, "geometry": { "type": "Point", "coordinates": [ -73.601, 40.7154 ] } },
{ "type": "Feature", "properties": { "name": "Mvhs Rehabilitation And Nursing Center", "entity_id": 150894, "beds": 202.0, "address": "1650 Champlin Avenue", "city": "Utica", "zipcode": 13502 }, "geometry": { "type": "Point", "coordinates": [ -75.2755, 43.0996 ] } },
{ "type": "Feature", "properties": { "name": "Nottingham Rchf", "entity_id": 150895, "beds": 40.0, "address": "1305 Nottingham Road", "city": "Jamesville", "zipcode": 13078 }, "geometry": { "type": "Point", "coordinates": [ -76.0862, 43.0103 ] } },
{ "type": "Feature", "properties": { "name": "Helen Hayes Hospital Rhcf", "entity_id": 150896, "beds": 25.0, "address": "51 N Route 9w", "city": "West Haverstraw", "zipcode": 10993 }, "geometry": { "type": "Point", "coordinates": [ -73.986, 41.2139 ] } },
{ "type": "Feature", "properties": { "name": "Incarnation Childrens Center Inc", "entity_id": 150897, "beds": 21.0, "address": "142 Audubon Ave", "city": "New York", "zipcode": 10032 }, "geometry": { "type": "Point", "coordinates": [ -73.9365, 40.8432 ] } },
{ "type": "Feature", "properties": { "name": "Putnam Ridge", "entity_id": 150898, "beds": 160.0, "address": "46 Mt Ebo Road North", "city": "Brewster", "zipcode": 10509 }, "geometry": { "type": "Point", "coordinates": [ -73.5721, 41.4399 ] } },
{ "type": "Feature", "properties": { "name": "The Grand Rehabilitation And Nursing At River Valley", "entity_id": 150899, "beds": 160.0, "address": "140 Main St", "city": "Poughkeepsie", "zipcode": 12601 }, "geometry": { "type": "Point", "coordinates": [ -73.9337, 41.7052 ] } },
{ "type": "Feature", "properties": { "name": "Wingate At Beacon", "entity_id": 150900, "beds": 160.0, "address": "10 Hastings Dr", "city": "Beacon", "zipcode": 12508 }, "geometry": { "type": "Point", "coordinates": [ -73.9583, 41.5095 ] } },
{ "type": "Feature", "properties": { "name": "Buena Vida Rehabilitation And Nursing Center", "entity_id": 150901, "beds": 240.0, "address": "48 Cedar Street", "city": "Brooklyn", "zipcode": 11221 }, "geometry": { "type": "Point", "coordinates": [ -73.9277, 40.6969 ] } },
{ "type": "Feature", "properties": { "name": "Adira At Riverside Rehabilitation And Nursing", "entity_id": 150902, "beds": 120.0, "address": "120 Odell Ave", "city": "Yonkers", "zipcode": 10701 }, "geometry": { "type": "Point", "coordinates": [ -73.8863, 40.9707 ] } },
{ "type": "Feature", "properties": { "name": "New York State Veterans Home At Montrose", "entity_id": 150903, "beds": 252.0, "address": "2090 Albany Post Rd", "city": "Montrose", "zipcode": 10548 }, "geometry": { "type": "Point", "coordinates": [ -73.9254, 41.2436 ] } },
{ "type": "Feature", "properties": { "name": "Fulton Commons Care Center Inc", "entity_id": 150904, "beds": 280.0, "address": "60 Merrick Ave", "city": "East Meadows", "zipcode": 11554 }, "geometry": { "type": "Point", "coordinates": [ -73.578, 40.7211 ] } },
{ "type": "Feature", "properties": { "name": "Jefferson's Ferry", "entity_id": 150905, "beds": 60.0, "address": "500 Mather Drive", "city": "So Setauket", "zipcode": 11720 }, "geometry": { "type": "Point", "coordinates": [ -73.0797, 40.8981 ] } },
{ "type": "Feature", "properties": { "name": "Island Nursing And Rehab Center", "entity_id": 150906, "beds": 120.0, "address": "5537 Expressway Drive North", "city": "Holtsville", "zipcode": 11742 }, "geometry": { "type": "Point", "coordinates": [ -73.0264, 40.8235 ] } },
{ "type": "Feature", "properties": { "name": "Maria Regina Residence Inc", "entity_id": 150907, "beds": 188.0, "address": "1725 Brentwood Rd - Bldg 1", "city": "Brentwood", "zipcode": 11717 }, "geometry": { "type": "Point", "coordinates": [ -73.2461, 40.7725 ] } },
{ "type": "Feature", "properties": { "name": "New York Center For Rehabilitation & Nursing", "entity_id": 150908, "beds": 280.0, "address": "26-13 21st Street", "city": "Astoria", "zipcode": 11102 }, "geometry": { "type": "Point", "coordinates": [ -73.9251, 40.7731 ] } },
{ "type": "Feature", "properties": { "name": "Affinity Skilled Living And Rehabilitation Center", "entity_id": 150910, "beds": 280.0, "address": "305 Locust Avenue", "city": "Oakdale", "zipcode": 11769 }, "geometry": { "type": "Point", "coordinates": [ -73.1119, 40.7431 ] } },
{ "type": "Feature", "properties": { "name": "Medford Multicare Center For Living", "entity_id": 150911, "beds": 320.0, "address": "3115 Horseblock Road", "city": "Medford", "zipcode": 11763 }, "geometry": { "type": "Point", "coordinates": [ -72.985, 40.8257 ] } },
{ "type": "Feature", "properties": { "name": "Peconic Landing At Southold", "entity_id": 150912, "beds": 60.0, "address": "1500 Brecknock Road", "city": "Greenport", "zipcode": 11944 }, "geometry": { "type": "Point", "coordinates": [ -72.3635, 41.1197 ] } },
{ "type": "Feature", "properties": { "name": "The Knolls", "entity_id": 150913, "beds": 20.0, "address": "55 Grasslands Road", "city": "Valhalla", "zipcode": 10595 }, "geometry": { "type": "Point", "coordinates": [ -73.7824, 41.0699 ] } },
{ "type": "Feature", "properties": { "name": "Our Lady Of Peace Nursing Care Residence", "entity_id": 150914, "beds": 250.0, "address": "5285 Lewiston Road", "city": "Lewiston", "zipcode": 14092 }, "geometry": { "type": "Point", "coordinates": [ -79.0383, 43.1536 ] } },
{ "type": "Feature", "properties": { "name": "Kendal On Hudson", "entity_id": 150915, "beds": 26.0, "address": "One Kendal Way", "city": "Sleepy Hollow", "zipcode": 10591 }, "geometry": { "type": "Point", "coordinates": [ -73.8638, 41.0839 ] } },
{ "type": "Feature", "properties": { "name": "The Hamptons Center For Rehabilitation And Nursing", "entity_id": 150916, "beds": 280.0, "address": "64 County Road 39", "city": "Southampton", "zipcode": 11968 }, "geometry": { "type": "Point", "coordinates": [ -72.4007, 40.8966 ] } },
{ "type": "Feature", "properties": { "name": "Glen Arden Inc", "entity_id": 150917, "beds": 40.0, "address": "214 Harriman Drive", "city": "Goshen", "zipcode": 10924 }, "geometry": { "type": "Point", "coordinates": [ -74.3159, 41.3876 ] } },
{ "type": "Feature", "properties": { "name": "Wingate Of Ulster", "entity_id": 150918, "beds": 120.0, "address": "One Wingate Way", "city": "Highland", "zipcode": 12528 }, "geometry": { "type": "Point", "coordinates": [ -73.9668, 41.697 ] } },
{ "type": "Feature", "properties": { "name": "Brooklyn Gardens Nursing & Rehabilitation Center", "entity_id": 150919, "beds": 240.0, "address": "835 Herkimer Street", "city": "Brooklyn", "zipcode": 11233 }, "geometry": { "type": "Point", "coordinates": [ -73.9257, 40.6784 ] } },
{ "type": "Feature", "properties": { "name": "Evergreen Commons Rehabilitation And Nursing Center", "entity_id": 150920, "beds": 240.0, "address": "1070 Luther Road", "city": "East Greenbush", "zipcode": 12061 }, "geometry": { "type": "Point", "coordinates": [ -73.6982, 42.6199 ] } },
{ "type": "Feature", "properties": { "name": "Bethel Nursing & Rehabilitation Center", "entity_id": 150921, "beds": 200.0, "address": "67 Springvale Road", "city": "Croton-On-hudson", "zipcode": 10520 }, "geometry": { "type": "Point", "coordinates": [ -73.9162, 41.2332 ] } },
{ "type": "Feature", "properties": { "name": "Dr Susan Smith Mckinney Nursing And Rehabilitation Center", "entity_id": 150922, "beds": 320.0, "address": "594 Albany Avenue", "city": "Brooklyn", "zipcode": 11203 }, "geometry": { "type": "Point", "coordinates": [ -73.9398, 40.6602 ] } },
{ "type": "Feature", "properties": { "name": "The Pavilion At Queens For Rehabilitation & Nursing", "entity_id": 150923, "beds": 302.0, "address": "36-17 Parsons Boulevard", "city": "Flushing", "zipcode": 11354 }, "geometry": { "type": "Point", "coordinates": [ -73.8232, 40.7642 ] } },
{ "type": "Feature", "properties": { "name": "The Grove At Valhalla Rehabilitation And Nursing Center", "entity_id": 150924, "beds": 160.0, "address": "61 Grasslands Road", "city": "Valhalla", "zipcode": 10595 }, "geometry": { "type": "Point", "coordinates": [ -73.7833, 41.07 ] } },
{ "type": "Feature", "properties": { "name": "Lutheran Center At Poughkeepsie, Inc", "entity_id": 150925, "beds": 160.0, "address": "965 Duthcess Turnpike", "city": "Poughkeepsie", "zipcode": 12603 }, "geometry": { "type": "Point", "coordinates": [ -73.8642, 41.7113 ] } },
{ "type": "Feature", "properties": { "name": "Linden Center For Nursing And Rehabilitation", "entity_id": 150926, "beds": 280.0, "address": "2237 Linden Boulevard", "city": "Brooklyn", "zipcode": 11207 }, "geometry": { "type": "Point", "coordinates": [ -73.8807, 40.6631 ] } },
{ "type": "Feature", "properties": { "name": "Greenfield Health & Rehab Center", "entity_id": 150927, "beds": 160.0, "address": "5949 Broadway", "city": "Lancaster", "zipcode": 14086 }, "geometry": { "type": "Point", "coordinates": [ -78.632, 42.895 ] } },
{ "type": "Feature", "properties": { "name": "Seneca Hill Manor Inc", "entity_id": 150928, "beds": 120.0, "address": "20 Manor Drive", "city": "Oswego", "zipcode": 13126 }, "geometry": { "type": "Point", "coordinates": [ -76.4595, 43.3972 ] } },
{ "type": "Feature", "properties": { "name": "Elmhurst Care Center, Inc", "entity_id": 150929, "beds": 240.0, "address": "100-17 23 Avenue", "city": "East Elmhurst", "zipcode": 11369 }, "geometry": { "type": "Point", "coordinates": [ -73.8702, 40.7689 ] } },
{ "type": "Feature", "properties": { "name": "Northeast Center For Rehabilitation And Brain Injury", "entity_id": 150930, "beds": 280.0, "address": "300 Grant Ave", "city": "Lake Katrine", "zipcode": 12449 }, "geometry": { "type": "Point", "coordinates": [ -73.9952, 41.9805 ] } },
{ "type": "Feature", "properties": { "name": "Huntington Hills Center For Health And Rehabilitation", "entity_id": 150931, "beds": 320.0, "address": "400 South Service Road", "city": "Melville", "zipcode": 11747 }, "geometry": { "type": "Point", "coordinates": [ -73.4051, 40.7818 ] } },
{ "type": "Feature", "properties": { "name": "Canterbury Woods", "entity_id": 150932, "beds": 48.0, "address": "725 Renaissance Drive", "city": "Williamsville", "zipcode": 14221 }, "geometry": { "type": "Point", "coordinates": [ -78.7229, 42.9965 ] } },
{ "type": "Feature", "properties": { "name": "Park Avenue Extended Care Facility", "entity_id": 150933, "beds": 240.0, "address": "425 National Boulevard", "city": "Long Beach", "zipcode": 11561 }, "geometry": { "type": "Point", "coordinates": [ -73.6671, 40.59 ] } },
{ "type": "Feature", "properties": { "name": "Regal Heights Rehabilitation And Health Care Center", "entity_id": 150934, "beds": 280.0, "address": "70-05 35th Ave", "city": "Jackson Heights", "zipcode": 11372 }, "geometry": { "type": "Point", "coordinates": [ -73.8955, 40.7507 ] } },
{ "type": "Feature", "properties": { "name": "United Health Services Hospitals Inc. - Binghamton General Hospital", "entity_id": 153979, "beds": 220.0, "address": "10-42 Mitchell Avenue", "city": "Binghamton", "zipcode": 13903 }, "geometry": { "type": "Point", "coordinates": [ -75.9142, 42.0881 ] } },
{ "type": "Feature", "properties": { "name": "John T Mather Memorial Hospital Of Port Jefferson New York Inc", "entity_id": 153981, "beds": 248.0, "address": "75 North Country Road", "city": "Port Jefferson", "zipcode": 11777 }, "geometry": { "type": "Point", "coordinates": [ -73.0539, 40.9382 ] } },
{ "type": "Feature", "properties": { "name": "Jamaica Hospital Medical Center", "entity_id": 153983, "beds": 402.0, "address": "89th Avenue & Van Wyck Expressway", "city": "Jamaica", "zipcode": 11418 }, "geometry": { "type": "Point", "coordinates": [ -73.8163, 40.7014 ] } },
{ "type": "Feature", "properties": { "name": "Woodland Pond At New Paltz", "entity_id": 208955, "beds": 40.0, "address": "100 Woodland Pond Circle", "city": "New Paltz", "zipcode": 12561 }, "geometry": { "type": "Point", "coordinates": [ -74.0615, 41.7581 ] } },
{ "type": "Feature", "properties": { "name": "Good Shepherd Village At Endwell", "entity_id": 208956, "beds": 32.0, "address": "14 Village Drive", "city": "Endwell", "zipcode": 13760 }, "geometry": { "type": "Point", "coordinates": [ -76.021, 42.148 ] } },
{ "type": "Feature", "properties": { "name": "Eddy Village Green At Beverwyck", "entity_id": 208957, "beds": 24.0, "address": "40 Autumn Drive", "city": "Slingerlands", "zipcode": 12159 }, "geometry": { "type": "Point", "coordinates": [ -73.8385, 42.6584 ] } },
{ "type": "Feature", "properties": { "name": "The Amsterdam At Harborside", "entity_id": 208958, "beds": 56.0, "address": "300 East Overlook", "city": "Port Washington", "zipcode": 11050 }, "geometry": { "type": "Point", "coordinates": [ -73.6653, 40.8279 ] } },
{ "type": "Feature", "properties": { "name": "Newyork-Presbyterian\/Queens", "entity_id": 234608, "beds": 535.0, "address": "56-45 Main Street", "city": "Flushing", "zipcode": 11355 }, "geometry": { "type": "Point", "coordinates": [ -73.826, 40.7475 ] } },
{ "type": "Feature", "properties": { "name": "St. John's Penfield Homes", "entity_id": 234609, "beds": 20.0, "address": "65 Sonoma Drive", "city": "Fairport", "zipcode": 14450 }, "geometry": { "type": "Point", "coordinates": [ -77.4482, 43.1107 ] } },
{ "type": "Feature", "properties": { "name": "Samaritan Senior Village, Inc.", "entity_id": 240871, "beds": 167.0, "address": "22691 Campus Drive", "city": "Watertown", "zipcode": 13601 }, "geometry": { "type": "Point", "coordinates": [ -75.9374, 43.9881 ] } },
{ "type": "Feature", "properties": { "name": "Flushing Hospital Medical Center", "entity_id": 240872, "beds": 299.0, "address": "45th Avenue & Parsons Blvd", "city": "Flushing", "zipcode": 11355 }, "geometry": { "type": "Point", "coordinates": [ -73.8155, 40.7555 ] } },
{ "type": "Feature", "properties": { "name": "Vestal Park Rehabilitation And Nursing Center", "entity_id": 241577, "beds": 160.0, "address": "105 West Sheedy Road", "city": "Vestal", "zipcode": 13850 }, "geometry": { "type": "Point", "coordinates": [ -76.0211, 42.0543 ] } },
{ "type": "Feature", "properties": { "name": "Northern Westchester Hospital", "entity_id": 254385, "beds": 245.0, "address": "400 East Main Street", "city": "Mount Kisco", "zipcode": 10549 }, "geometry": { "type": "Point", "coordinates": [ -73.7245, 41.1968 ] } },
{ "type": "Feature", "properties": { "name": "Upstate University Hospital At Community General", "entity_id": 254528, "beds": 314.0, "address": "4900 Broad Road", "city": "Syracuse", "zipcode": 13215 }, "geometry": { "type": "Point", "coordinates": [ -76.1702, 43.0078 ] } },
{ "type": "Feature", "properties": { "name": "Mount Sinai South Nassau", "entity_id": 1160394, "beds": 455.0, "address": "One Healthy Way", "city": "Oceanside", "zipcode": 11572 }, "geometry": { "type": "Point", "coordinates": [ -73.6315, 40.6496 ] } },
{ "type": "Feature", "properties": { "name": "Helen Hayes Hospital", "entity_id": 1253376, "beds": 130.0, "address": "51 N Route 9w", "city": "West Haverstraw", "zipcode": 10993 }, "geometry": { "type": "Point", "coordinates": [ -73.986, 41.2139 ] } },
{ "type": "Feature", "properties": { "name": "The Steven And Alexandra Cohen Pediatric Long Term Care Pavilion", "entity_id": 1253510, "beds": 24.0, "address": "95 Bradhurst Avenue", "city": "Valhalla", "zipcode": 10595 }, "geometry": { "type": "Point", "coordinates": [ -73.8, 41.0741 ] } },
{ "type": "Feature", "properties": { "name": "Delhi Rehabilitation And Nursing Center", "entity_id": 1256039, "beds": 176.0, "address": "41861 State Route 10", "city": "Delhi", "zipcode": 13753 }, "geometry": { "type": "Point", "coordinates": [ -74.9487, 42.2572 ] } },
{ "type": "Feature", "properties": { "name": "Montefiore Nyack", "entity_id": 12561390, "beds": 391.0, "address": "160 North Midland Avenue", "city": "Nyack", "zipcode": 10960 }, "geometry": { "type": "Point", "coordinates": [ -73.925, 41.0962 ] } }
]
}
